[
    {
        "id": 1,
        "city": "上海",
        "name": "上海迪士尼乐园",
        "level": "nan",
        "score": 0.0,
        "price": 325.0,
        "sales": 19459,
        "divisions": "上海/上海/浦东新区",
        "coordinate": {
            "lat": 31.149712,
            "lng": 121.667917
        },
        "introduction": "每个女孩都有一场迪士尼梦",
        "free": false,
        "address": "上海市浦东新区川沙镇黄赵路310号上海迪士尼乐园"
    },
    {
        "id": 2,
        "city": "上海",
        "name": "上海海昌海洋公园",
        "level": "4A",
        "score": 0.0,
        "price": 276.5,
        "sales": 19406,
        "divisions": "上海/上海/浦东新区",
        "coordinate": {
            "lat": 30.917713,
            "lng": 121.915647
        },
        "introduction": "看珍稀海洋生物 | 玩超刺激娱乐项目",
        "free": false,
        "address": "上海市浦东新区南汇城银飞路166号"
    },
    {
        "id": 3,
        "city": "上海",
        "name": "上海野生动物园",
        "level": "5A",
        "score": 3.6,
        "price": 116.0,
        "sales": 6764,
        "divisions": "上海/上海/浦东新区",
        "coordinate": {
            "lat": 31.059636,
            "lng": 121.728112
        },
        "introduction": "全球动物聚集地 | 零距离和动物做朋友",
        "free": false,
        "address": "上海市浦东新区南六公路178号"
    },
    {
        "id": 4,
        "city": "上海",
        "name": "东方绿舟",
        "level": "4A",
        "score": 3.5,
        "price": 40.0,
        "sales": 5353,
        "divisions": "上海/上海/青浦区",
        "coordinate": {
            "lat": 31.107866,
            "lng": 121.015977
        },
        "introduction": "全国首屈一指的青少年校外教育营地",
        "free": false,
        "address": "上海市青浦区沪青平公路6888号"
    },
    {
        "id": 5,
        "city": "上海",
        "name": "东方明珠",
        "level": "5A",
        "score": 3.8,
        "price": 54.0,
        "sales": 3966,
        "divisions": "上海/上海/浦东新区",
        "coordinate": {
            "lat": 31.245369,
            "lng": 121.50626
        },
        "introduction": "感受云端漫步，品味老上海风情",
        "free": false,
        "address": "上海市浦东新区世纪大道1号"
    },
    {
        "id": 6,
        "city": "上海",
        "name": "上海自然博物馆",
        "level": "nan",
        "score": 3.5,
        "price": 32.4,
        "sales": 3237,
        "divisions": "上海/上海/静安区",
        "coordinate": {
            "lat": 31.241294,
            "lng": 121.469083
        },
        "introduction": "在这里领略物种的变迁",
        "free": false,
        "address": "上海市静安区石门二路128号静安雕塑公园内"
    },
    {
        "id": 7,
        "city": "上海",
        "name": "上海佛罗伦萨小镇",
        "level": "3A",
        "score": 0.0,
        "price": 6.6,
        "sales": 2682,
        "divisions": "上海/上海/浦东新区",
        "coordinate": {
            "lat": 31.202718,
            "lng": 121.770767
        },
        "introduction": "2015年1月开业，落户上海浦东，成为上海及周边江浙地区时尚爱好者的钟爱去处。上海佛罗伦萨小镇引进了超百家环球名品，包括",
        "free": false,
        "address": "上海市浦东新区卓耀路58弄 （近地铁2号线远东大道站）"
    },
    {
        "id": 8,
        "city": "上海",
        "name": "上海科技馆",
        "level": "5A",
        "score": 3.7,
        "price": 45.0,
        "sales": 2120,
        "divisions": "上海/上海/浦东新区",
        "coordinate": {
            "lat": 31.224219,
            "lng": 121.54785
        },
        "introduction": "魔都科普教育殿堂 | 周末遛娃圣地",
        "free": false,
        "address": "上海市浦东新区世纪大道2000号(近二号线上海科技馆站)"
    },
    {
        "id": 9,
        "city": "上海",
        "name": "豫园",
        "level": "4A",
        "score": 4.2,
        "price": 40.0,
        "sales": 2103,
        "divisions": "上海/上海/黄浦区",
        "coordinate": {
            "lat": 31.233463,
            "lng": 121.498971
        },
        "introduction": "“奇秀甲于东南”、“东南名园冠”。",
        "free": false,
        "address": "上海市黄浦区福佑路168号"
    },
    {
        "id": 10,
        "city": "上海",
        "name": "上海动物园",
        "level": "4A",
        "score": 3.6,
        "price": 39.6,
        "sales": 1718,
        "divisions": "上海/上海/长宁区",
        "coordinate": {
            "lat": 31.199264,
            "lng": 121.369411
        },
        "introduction": "大型城市动物园 | 620余种可爱动物",
        "free": false,
        "address": "上海市长宁区虹桥路2381号"
    },
    {
        "id": 11,
        "city": "上海",
        "name": "辰山植物园",
        "level": "nan",
        "score": 0.0,
        "price": 60.0,
        "sales": 1654,
        "divisions": "上海/上海/佘山国家旅游度假区",
        "coordinate": {
            "lat": 31.080816,
            "lng": 121.188507
        },
        "introduction": "上海网红野餐地 | “莫奈花园”四季皆美",
        "free": false,
        "address": "上海市松江区辰花公路3888号"
    },
    {
        "id": 12,
        "city": "上海",
        "name": "黄浦江游览（十六铺码头）",
        "level": "nan",
        "score": 0.0,
        "price": 90.0,
        "sales": 1576,
        "divisions": "上海/上海/黄浦区",
        "coordinate": {
            "lat": 31.234893,
            "lng": 121.503083
        },
        "introduction": "夜游黄浦江，霓虹交错，赏魔都繁华景象",
        "free": false,
        "address": "上海市黄浦区中山东二路481号B1层（十六铺码头一区）"
    },
    {
        "id": 13,
        "city": "上海",
        "name": "上海中心大厦上海之巅观光厅",
        "level": "nan",
        "score": 0.0,
        "price": 153.0,
        "sales": 1212,
        "divisions": "上海/上海/浦东新区",
        "coordinate": {
            "lat": 31.239758,
            "lng": 121.512867
        },
        "introduction": "超高层地标式摩天大楼",
        "free": false,
        "address": "上海市浦东新区陆家嘴环路479号（近东泰路）"
    },
    {
        "id": 14,
        "city": "上海",
        "name": "东平国家森林公园",
        "level": "4A",
        "score": 3.5,
        "price": 54.7,
        "sales": 836,
        "divisions": "上海/上海/崇明岛",
        "coordinate": {
            "lat": 31.689225,
            "lng": 121.487554
        },
        "introduction": "在这里，你只需要深呼吸",
        "free": false,
        "address": "上海市崇明县北沿路2188号"
    },
    {
        "id": 15,
        "city": "上海",
        "name": "上海影视乐园",
        "level": "4A",
        "score": 3.5,
        "price": 70.0,
        "sales": 830,
        "divisions": "上海/上海/松江区",
        "coordinate": {
            "lat": 31.016693,
            "lng": 121.319396
        },
        "introduction": "中国十大影视基地之一 | 重回民国上海滩",
        "free": false,
        "address": "上海市松江区车墩镇北松公路4915号"
    },
    {
        "id": 16,
        "city": "上海",
        "name": "外滩",
        "level": "nan",
        "score": 5.0,
        "price": 40.0,
        "sales": 762,
        "divisions": "上海/上海/黄浦区",
        "coordinate": {
            "lat": 31.240722,
            "lng": 121.497854
        },
        "introduction": "感受上海十里洋场的风景",
        "free": false,
        "address": "上海市黄浦区中山东一路（北至外白渡桥、南至十六铺码头）"
    },
    {
        "id": 17,
        "city": "上海",
        "name": "上海欢乐谷",
        "level": "4A",
        "score": 3.6,
        "price": 228.9,
        "sales": 750,
        "divisions": "上海/上海/松江区",
        "coordinate": {
            "lat": 31.102491,
            "lng": 121.22218
        },
        "introduction": "玩得就是心跳 | 各种刺激好玩娱乐项目",
        "free": false,
        "address": "上海市松江区佘山镇林湖路888号"
    },
    {
        "id": 18,
        "city": "上海",
        "name": "上海杜莎夫人蜡像馆",
        "level": "4A",
        "score": 3.7,
        "price": 99.0,
        "sales": 718,
        "divisions": "上海/上海/黄浦区",
        "coordinate": {
            "lat": 31.240715,
            "lng": 121.480215
        },
        "introduction": "走自己的红毯，与世界明星相遇",
        "free": false,
        "address": "上海市黄浦区南京西路2-68号新世界商厦10楼"
    },
    {
        "id": 19,
        "city": "上海",
        "name": "迪士尼小镇",
        "level": "nan",
        "score": 0.0,
        "price": 393.4,
        "sales": 680,
        "divisions": "上海/上海/浦东新区",
        "coordinate": {
            "lat": 31.14594,
            "lng": 121.668347
        },
        "introduction": "迪士尼大型购物餐饮娱乐区",
        "free": false,
        "address": "上海市浦东新区迪士尼小镇申迪西路255弄"
    },
    {
        "id": 20,
        "city": "上海",
        "name": "上海海洋水族馆",
        "level": "4A",
        "score": 3.7,
        "price": 154.0,
        "sales": 676,
        "divisions": "上海/上海/浦东新区",
        "coordinate": {
            "lat": 31.246234,
            "lng": 121.50818
        },
        "introduction": "穿越世界，来一次终生难忘的海洋之旅",
        "free": false,
        "address": "上海市浦东新区陆家嘴环路1388号（近东方明珠）"
    },
    {
        "id": 21,
        "city": "上海",
        "name": "浦江郊野公园奇迹花园",
        "level": "nan",
        "score": 0.0,
        "price": 48.9,
        "sales": 652,
        "divisions": "上海/上海/闵行区",
        "coordinate": {
            "lat": 31.060409,
            "lng": 121.509672
        },
        "introduction": "200万株奇花异卉 | 童话世界花海野餐",
        "free": false,
        "address": "上海市闵行区浦星公路2578弄8号"
    },
    {
        "id": 22,
        "city": "上海",
        "name": "广富林文化遗址",
        "level": "nan",
        "score": 0.0,
        "price": 36.8,
        "sales": 628,
        "divisions": "上海/上海/松江区",
        "coordinate": {
            "lat": 31.063886,
            "lng": 121.20174
        },
        "introduction": "松江绝美“小故宫” | 探秘水下博物馆",
        "free": false,
        "address": "上海市松江区广富林路3260弄"
    },
    {
        "id": 23,
        "city": "上海",
        "name": "陆家嘴",
        "level": "nan",
        "score": 0.0,
        "price": 56.0,
        "sales": 378,
        "divisions": "上海/上海/浦东新区",
        "coordinate": {
            "lat": 31.248139,
            "lng": 121.513278
        },
        "introduction": "上海金融中心区，感受高大上的金融世界",
        "free": false,
        "address": "上海市浦东新区西北部"
    },
    {
        "id": 24,
        "city": "上海",
        "name": "浦江郊野公园",
        "level": "nan",
        "score": 0.0,
        "price": 48.9,
        "sales": 356,
        "divisions": "上海/上海/闵行区",
        "coordinate": {
            "lat": 31.061035,
            "lng": 121.515951
        },
        "introduction": "浦江郊野公园位于上海闵行区浦星公路(大治河北侧)，是一个“以森林游憩、滨水休闲为主要功能的近郊都市森林型郊野公园”。\n公",
        "free": false,
        "address": "上海市闵行区浦星公路2578弄8号"
    },
    {
        "id": 25,
        "city": "上海",
        "name": "豪华浦江游船（东方明珠码头）",
        "level": "nan",
        "score": 0.0,
        "price": 70.0,
        "sales": 334,
        "divisions": "上海/上海/浦东新区",
        "coordinate": {
            "lat": 31.246365,
            "lng": 121.503369
        },
        "introduction": "在此处可将浦江两岸每一道风景线尽收眼底",
        "free": false,
        "address": "上海市浦东新区滨江大道2852号靠近丰和路口东方明珠游船码头"
    },
    {
        "id": 26,
        "city": "上海",
        "name": "金茂大厦88层观光厅",
        "level": "4A",
        "score": 3.8,
        "price": 56.0,
        "sales": 332,
        "divisions": "上海/上海/浦东新区",
        "coordinate": {
            "lat": 31.240746,
            "lng": 121.512094
        },
        "introduction": "上海就在脚下",
        "free": false,
        "address": "上海市浦东新区浦东世纪大道88号观光厅"
    },
    {
        "id": 27,
        "city": "上海",
        "name": "顾村公园",
        "level": "4A",
        "score": 0.0,
        "price": 48.0,
        "sales": 322,
        "divisions": "上海/上海/宝山区",
        "coordinate": {
            "lat": 31.346641,
            "lng": 121.384711
        },
        "introduction": "岛国很远，顾村很近 | 郊游赏樱宝藏公园",
        "free": false,
        "address": "上海市宝山区顾村镇沪太路4788号环岛路1号（近沪太路）"
    },
    {
        "id": 28,
        "city": "上海",
        "name": "共青森林公园",
        "level": "4A",
        "score": 3.6,
        "price": 15.0,
        "sales": 264,
        "divisions": "上海/上海/杨浦区",
        "coordinate": {
            "lat": 31.326546,
            "lng": 121.558078
        },
        "introduction": "在这里尽情领略大自然的情趣",
        "free": false,
        "address": "上海市杨浦区军工路2000号"
    },
    {
        "id": 29,
        "city": "上海",
        "name": "上海周浦花海",
        "level": "nan",
        "score": 0.0,
        "price": 54.7,
        "sales": 256,
        "divisions": "上海/上海/浦东新区",
        "coordinate": {
            "lat": 31.118973,
            "lng": 121.65535
        },
        "introduction": "一年四季鲜花不断，汇成令人迷醉的花海",
        "free": false,
        "address": "上海市浦东新区周浦镇周邓公路申江路界浜村406号"
    },
    {
        "id": 30,
        "city": "上海",
        "name": "环球金融中心观光厅",
        "level": "4A",
        "score": 3.6,
        "price": 110.0,
        "sales": 252,
        "divisions": "上海/上海/浦东新区",
        "coordinate": {
            "lat": 31.23965,
            "lng": 121.513463
        },
        "introduction": "来上海登三高，眺望魔都霓虹闪烁",
        "free": false,
        "address": "上海市浦东新区世纪大道100号"
    },
    {
        "id": 31,
        "city": "上海",
        "name": "上海世纪公园",
        "level": "4A",
        "score": 3.6,
        "price": 12.9,
        "sales": 232,
        "divisions": "上海/上海/浦东新区",
        "coordinate": {
            "lat": 31.221764,
            "lng": 121.558497
        },
        "introduction": "环境“很嗲”，空气“清新”",
        "free": false,
        "address": "上海市浦东新区浦东锦绣路1001号"
    },
    {
        "id": 32,
        "city": "上海",
        "name": "上海汽车博物馆",
        "level": "nan",
        "score": 3.5,
        "price": 30.0,
        "sales": 218,
        "divisions": "上海/上海/嘉定区",
        "coordinate": {
            "lat": 31.284864,
            "lng": 121.176622
        },
        "introduction": "汽车世界，等你来探索",
        "free": false,
        "address": "上海市嘉定区安亭博园路7565号"
    },
    {
        "id": 33,
        "city": "上海",
        "name": "创极速光轮",
        "level": "nan",
        "score": 0.0,
        "price": 319.0,
        "sales": 216,
        "divisions": "上海/上海/上海迪士尼乐园",
        "coordinate": {
            "lat": 31.149712,
            "lng": 121.667917
        },
        "introduction": "可领取快速通行证。驾驶急速光轮,体验全球迪士尼乐园中速度最快的项目之在虚拟世界与生命赛跑,感受惊心动魄的急速飞驰吧。极速",
        "free": false,
        "address": "上海市浦东新区川沙镇迪士尼度假区明日世界内"
    },
    {
        "id": 34,
        "city": "上海",
        "name": "南京路步行街",
        "level": "nan",
        "score": 4.1,
        "price": 49.9,
        "sales": 210,
        "divisions": "上海/上海/黄浦区",
        "coordinate": {
            "lat": 31.234851,
            "lng": 121.474776
        },
        "introduction": "火树银花不夜天，霓虹商业一条街",
        "free": false,
        "address": "上海市黄浦区"
    },
    {
        "id": 35,
        "city": "上海",
        "name": "上海海湾国家森林公园",
        "level": "4A",
        "score": 0.0,
        "price": 62.9,
        "sales": 200,
        "divisions": "上海/上海/奉贤区",
        "coordinate": {
            "lat": 30.86719,
            "lng": 121.692869
        },
        "introduction": "魔都超大森林公园 | 户外玩乐清凉一夏",
        "free": false,
        "address": "上海市奉贤区海湾镇随塘河路1677号"
    },
    {
        "id": 36,
        "city": "上海",
        "name": "上海大世界",
        "level": "nan",
        "score": 3.5,
        "price": 50.0,
        "sales": 194,
        "divisions": "上海/上海/黄浦区",
        "coordinate": {
            "lat": 31.233127,
            "lng": 121.485885
        },
        "introduction": "以游艺杂耍和南北戏曲、曲艺为其特色",
        "free": false,
        "address": "上海市黄浦区西藏南路1号"
    },
    {
        "id": 37,
        "city": "上海",
        "name": "上海大观园",
        "level": "4A",
        "score": 3.5,
        "price": 44.9,
        "sales": 190,
        "divisions": "上海/上海/青浦区",
        "coordinate": {
            "lat": 31.080445,
            "lng": 120.915048
        },
        "introduction": "红楼遗梦，亭台楼阁，尽显恢弘宏伟",
        "free": false,
        "address": "上海市青浦区金商公路701号上海大观园"
    },
    {
        "id": 38,
        "city": "上海",
        "name": "加勒比海盗——沉落宝藏之战",
        "level": "nan",
        "score": 0.0,
        "price": 319.0,
        "sales": 154,
        "divisions": "上海/上海/上海迪士尼乐园",
        "coordinate": {
            "lat": 31.149712,
            "lng": 121.667917
        },
        "introduction": "坐上海盗船与杰克船长一起寻找宝藏,影像效果逼真,引人入胜。加勒比海盗——沉落宝藏之战是宝藏湾里重量级的项目,讲述的是杰克",
        "free": false,
        "address": "上海市浦东新区川沙镇黄赵路310号上海迪士尼乐园内"
    },
    {
        "id": 39,
        "city": "上海",
        "name": "外滩观光隧道",
        "level": "nan",
        "score": 3.5,
        "price": 45.0,
        "sales": 154,
        "divisions": "上海/上海/黄浦区",
        "coordinate": {
            "lat": 31.245469,
            "lng": 121.497043
        },
        "introduction": "具有迷幻色彩的魅力隧道",
        "free": false,
        "address": "上海市黄浦区中山东一路349号（陈毅广场向北70米）"
    },
    {
        "id": 40,
        "city": "上海",
        "name": "上海世茂精灵之城主题乐园（深坑秘境）",
        "level": "nan",
        "score": 0.0,
        "price": 62.0,
        "sales": 146,
        "divisions": "上海/上海/松江区",
        "coordinate": {
            "lat": 31.063983,
            "lng": 121.161496
        },
        "introduction": "古老神秘的峡谷丛林，翱翔天际的上古异兽",
        "free": false,
        "address": "上海市松江区辰花路5898号"
    },
    {
        "id": 41,
        "city": "上海",
        "name": "上海世茂精灵之城主题乐园（蓝精灵乐园）",
        "level": "nan",
        "score": 0.0,
        "price": 146.69,
        "sales": 134,
        "divisions": "上海/上海/上海世茂精灵之城主题乐园（深坑秘境）",
        "coordinate": {
            "lat": 0.0,
            "lng": 0.0
        },
        "introduction": "nan",
        "free": false,
        "address": "上海市松江区辰花路5088号"
    },
    {
        "id": 42,
        "city": "上海",
        "name": "东方明珠码头·黄浦江游船",
        "level": "nan",
        "score": 0.0,
        "price": 106.0,
        "sales": 130,
        "divisions": "上海/上海/东方明珠",
        "coordinate": {
            "lat": 31.246287,
            "lng": 121.503541
        },
        "introduction": "江中观景，享受休闲旅游",
        "free": false,
        "address": "上海市浦东新区滨江大道2852号靠近丰和路口东方明珠游船码头"
    },
    {
        "id": 43,
        "city": "上海",
        "name": "朱家角古镇",
        "level": "4A",
        "score": 3.6,
        "price": 25.0,
        "sales": 122,
        "divisions": "上海/上海/青浦区",
        "coordinate": {
            "lat": 31.116917,
            "lng": 121.061605
        },
        "introduction": "素有“上海威尼斯”及“沪郊好莱坞”之誉",
        "free": false,
        "address": "上海市青浦区朱家角镇美周路36号"
    },
    {
        "id": 44,
        "city": "上海",
        "name": "滨江森林公园",
        "level": "nan",
        "score": 3.5,
        "price": 20.0,
        "sales": 122,
        "divisions": "上海/上海/浦东新区",
        "coordinate": {
            "lat": 31.389491,
            "lng": 121.533982
        },
        "introduction": "植被覆盖极高的森林公园 | 放风好去处",
        "free": false,
        "address": "上海市浦东新区最北端高桥镇三岔港"
    },
    {
        "id": 45,
        "city": "上海",
        "name": "上海长风海洋世界",
        "level": "4A",
        "score": 3.5,
        "price": 120.0,
        "sales": 116,
        "divisions": "上海/上海/普陀区",
        "coordinate": {
            "lat": 31.230472,
            "lng": 121.403563
        },
        "introduction": "和奥莉一起看魔鬼鱼啦",
        "free": false,
        "address": "上海市普陀区大渡河路451号（长风公园4号门）"
    },
    {
        "id": 46,
        "city": "上海",
        "name": "古猗园",
        "level": "4A",
        "score": 3.5,
        "price": 10.0,
        "sales": 108,
        "divisions": "上海/上海/嘉定区",
        "coordinate": {
            "lat": 31.298418,
            "lng": 121.323438
        },
        "introduction": "猗猗绿竹，幽静曲水，韵味隽永",
        "free": false,
        "address": "上海市嘉定区南翔镇沪宜路218号"
    },
    {
        "id": 47,
        "city": "上海",
        "name": "锦江乐园",
        "level": "4A",
        "score": 3.6,
        "price": 122.9,
        "sales": 102,
        "divisions": "上海/上海/闵行区",
        "coordinate": {
            "lat": 31.146669,
            "lng": 121.417416
        },
        "introduction": "上海乐园鼻祖 | 国内首座巨型摩天轮",
        "free": false,
        "address": "上海市闵行区虹梅路201号"
    },
    {
        "id": 48,
        "city": "上海",
        "name": "EPSON teamLab 无界美术馆 teamLab Borderless Shanghai",
        "level": "nan",
        "score": 0.0,
        "price": 219.0,
        "sales": 102,
        "divisions": "上海/上海/黄浦区",
        "coordinate": {
            "lat": 31.207456,
            "lng": 121.504102
        },
        "introduction": "由艺术团队teamLab打造的大型美术馆“EPSON teamLab无界美术馆：teamLab Borderless S",
        "free": false,
        "address": "上海市黄浦区花园港路100号C-2单元teamLab无界美术馆"
    },
    {
        "id": 49,
        "city": "上海",
        "name": "中国航海博物馆",
        "level": "4A",
        "score": 0.0,
        "price": 27.0,
        "sales": 98,
        "divisions": "上海/上海/浦东新区",
        "coordinate": {
            "lat": 30.903535,
            "lng": 121.926115
        },
        "introduction": "航海世界，你我同行",
        "free": false,
        "address": "上海市浦东新区申港大道197号"
    },
    {
        "id": 50,
        "city": "上海",
        "name": "月湖雕塑公园",
        "level": "nan",
        "score": 0.0,
        "price": 91.0,
        "sales": 94,
        "divisions": "上海/上海/佘山国家旅游度假区",
        "coordinate": {
            "lat": 31.103375,
            "lng": 121.211285
        },
        "introduction": "邀您进入充满知性、感性的艺术桃花源",
        "free": false,
        "address": "上海市松江区林荫新路1158号"
    },
    {
        "id": 51,
        "city": "上海",
        "name": "上海人民广场",
        "level": "nan",
        "score": 3.6,
        "price": 88.0,
        "sales": 94,
        "divisions": "上海/上海/黄浦区",
        "coordinate": {
            "lat": 31.236832849459,
            "lng": 121.48208011703
        },
        "introduction": "融文化、绿化、美化为一体跨世纪活动中心",
        "free": false,
        "address": "中国上海黄浦区上海人民广场"
    },
    {
        "id": 52,
        "city": "上海",
        "name": "东滩湿地公园",
        "level": "nan",
        "score": 3.5,
        "price": 45.0,
        "sales": 92,
        "divisions": "上海/上海/崇明岛",
        "coordinate": {
            "lat": 31.521639,
            "lng": 121.955196
        },
        "introduction": "观日出看候鸟 | 植被丰盛的风光摄影地",
        "free": false,
        "address": "上海市崇明县东滩东旺路"
    },
    {
        "id": 53,
        "city": "上海",
        "name": "金色童话盛典",
        "level": "nan",
        "score": 0.0,
        "price": 319.0,
        "sales": 90,
        "divisions": "上海/上海/浦东新区",
        "coordinate": {
            "lat": 31.148267,
            "lng": 121.671964
        },
        "introduction": "欣赏您喜爱的迪士尼公主们倾情上演的的音乐舞台盛宴，领略奇妙魔力和动人乐曲。白雪公主、安娜和艾莎、茉莉、爱丽儿和梅莉达诚邀",
        "free": false,
        "address": "上海市浦东新区川沙镇黄赵路310号上海迪士尼乐园"
    },
    {
        "id": 54,
        "city": "上海",
        "name": "上海植物园",
        "level": "nan",
        "score": 3.6,
        "price": 25.0,
        "sales": 78,
        "divisions": "上海/上海/徐汇区",
        "coordinate": {
            "lat": 31.152495,
            "lng": 121.450202
        },
        "introduction": "驻沪海外人士极为喜爱的郊游目的地",
        "free": false,
        "address": "上海市徐汇区龙吴路1111号"
    },
    {
        "id": 55,
        "city": "上海",
        "name": "上海博物馆",
        "level": "4A",
        "score": 3.8,
        "price": 1.0,
        "sales": 78,
        "divisions": "上海/上海/黄浦区",
        "coordinate": {
            "lat": 31.2343,
            "lng": 121.482
        },
        "introduction": "大型中国古代艺术博物馆，国内外享有盛誉",
        "free": false,
        "address": "上海市黄浦区人民大道201号"
    },
    {
        "id": 56,
        "city": "上海",
        "name": "上海城隍庙",
        "level": "nan",
        "score": 3.8,
        "price": 0.5,
        "sales": 72,
        "divisions": "上海/上海/黄浦区",
        "coordinate": {
            "lat": 31.231409005048,
            "lng": 121.49912146681
        },
        "introduction": "“中华一绝”的民俗艺术",
        "free": false,
        "address": "上海市黄浦区方浜中路249号"
    },
    {
        "id": 57,
        "city": "上海",
        "name": "都市观光旅游巴士",
        "level": "nan",
        "score": 0.0,
        "price": 37.0,
        "sales": 68,
        "divisions": "上海/上海/黄浦区",
        "coordinate": {
            "lat": 31.246226,
            "lng": 121.497355
        },
        "introduction": "随上随下，饱览上海城市风光",
        "free": false,
        "address": "上海市中山东一路391号“都市观光”外滩旅游服务中心"
    },
    {
        "id": 58,
        "city": "上海",
        "name": "黄浦江游览（金陵东路码头）",
        "level": "nan",
        "score": 0.0,
        "price": 55.0,
        "sales": 66,
        "divisions": "上海/上海/黄浦区",
        "coordinate": {
            "lat": 31.237973,
            "lng": 121.499782
        },
        "introduction": "浦江游览精华游近赏上海的地理地标—黄浦江两岸的美景，快线游则浓缩了浦江两岸的精华，路线为金陵东路码头—十六铺码头—老码头",
        "free": false,
        "address": "上海市黄浦区中山东二路141号金陵东路渡口"
    },
    {
        "id": 59,
        "city": "上海",
        "name": "BUS TOUR 上海观光游",
        "level": "nan",
        "score": 0.0,
        "price": 85.0,
        "sales": 64,
        "divisions": "上海/上海/黄浦区",
        "coordinate": {
            "lat": 31.234512,
            "lng": 121.474293
        },
        "introduction": "nan",
        "free": false,
        "address": "上海市黄埔区九江路588号（近湖北路）"
    },
    {
        "id": 60,
        "city": "上海",
        "name": "翱翔•飞越地平线",
        "level": "nan",
        "score": 0.0,
        "price": 319.0,
        "sales": 64,
        "divisions": "上海/上海/上海迪士尼乐园",
        "coordinate": {
            "lat": 31.149712,
            "lng": 121.667917
        },
        "introduction": "可领取快速通行证。如雷鸟一般在空中翱翔,环游世界著名城市和景观。来一场令人兴奋的飞行,以前所未有的方式见证这个神奇的世界",
        "free": false,
        "address": "上海市浦东新区川沙镇黄赵路310号上海迪士尼乐园内"
    },
    {
        "id": 61,
        "city": "云南",
        "name": "七彩云南欢乐世界",
        "level": "nan",
        "score": 0.0,
        "price": 184.0,
        "sales": 6468,
        "divisions": "云南/昆明/晋宁县",
        "coordinate": {
            "lat": 24.712651,
            "lng": 102.759278
        },
        "introduction": "丰富的自然山水资源、旖旎多姿的民族文化",
        "free": false,
        "address": "云南省昆明市晋宁区晋城镇"
    },
    {
        "id": 62,
        "city": "云南",
        "name": "云南民族村",
        "level": "4A",
        "score": 3.9,
        "price": 79.0,
        "sales": 2430,
        "divisions": "云南/昆明/西山区",
        "coordinate": {
            "lat": 24.971676,
            "lng": 102.669319
        },
        "introduction": "体验云南多个种族的文化沉淀",
        "free": false,
        "address": "云南省昆明市西山区滇池路1310号"
    },
    {
        "id": 63,
        "city": "云南",
        "name": "景洪曼听公园",
        "level": "4A",
        "score": 4.3,
        "price": 40.0,
        "sales": 1646,
        "divisions": "云南/西双版纳/景洪市",
        "coordinate": {
            "lat": 21.998503,
            "lng": 100.814267
        },
        "introduction": "古老的傣王御花园",
        "free": false,
        "address": "云南省西双版纳傣族自治州景洪市曼听路35号"
    },
    {
        "id": 64,
        "city": "云南",
        "name": "中科院西双版纳热带植物园",
        "level": "5A",
        "score": 4.2,
        "price": 75.0,
        "sales": 1366,
        "divisions": "云南/西双版纳/勐腊县",
        "coordinate": {
            "lat": 21.933968,
            "lng": 101.260734
        },
        "introduction": "四千余种来自世界各地的热带植物栖居于此",
        "free": false,
        "address": "云南省西双版纳州勐腊县勐仑镇(近野象谷)"
    },
    {
        "id": 65,
        "city": "云南",
        "name": "野象谷",
        "level": "4A",
        "score": 5.0,
        "price": 58.0,
        "sales": 1094,
        "divisions": "云南/西双版纳/景洪市",
        "coordinate": {
            "lat": 22.175621,
            "lng": 100.865759
        },
        "introduction": "与憨态可掬的大象漫步在热带雨林",
        "free": false,
        "address": "云南省西双版纳傣族自治州景洪市勐养镇三岔河"
    },
    {
        "id": 66,
        "city": "云南",
        "name": "玉龙雪山",
        "level": "5A",
        "score": 4.8,
        "price": 388.0,
        "sales": 974,
        "divisions": "云南/丽江/玉龙县",
        "coordinate": {
            "lat": 27.034011,
            "lng": 100.270093
        },
        "introduction": "壮美大雪山，十三座雪峰连绵不绝",
        "free": false,
        "address": "云南省丽江市玉龙纳西族自治县"
    },
    {
        "id": 67,
        "city": "云南",
        "name": "西双版纳原始森林公园",
        "level": "4A",
        "score": 4.0,
        "price": 43.0,
        "sales": 960,
        "divisions": "云南/西双版纳/景洪市",
        "coordinate": {
            "lat": 22.033038,
            "lng": 100.881258
        },
        "introduction": "独特的原始热带雨林自然风光融合民族风情",
        "free": false,
        "address": "云南省西双版纳傣族自治州距景洪市8公里处213国道旁"
    },
    {
        "id": 68,
        "city": "云南",
        "name": "崇圣寺三塔",
        "level": "5A",
        "score": 4.3,
        "price": 61.0,
        "sales": 646,
        "divisions": "云南/大理/大理古城",
        "coordinate": {
            "lat": 25.710163,
            "lng": 100.149535
        },
        "introduction": "大理的标志和象征，来大理不可错过的地方哦",
        "free": false,
        "address": "云南省大理市大理古城西北两公里的苍山应乐峰下"
    },
    {
        "id": 69,
        "city": "云南",
        "name": "青鱼湾水上乐园",
        "level": "nan",
        "score": 0.0,
        "price": 103.0,
        "sales": 634,
        "divisions": "云南/昆明",
        "coordinate": {
            "lat": 24.851305,
            "lng": 102.54549
        },
        "introduction": "感受云南大型水上乐园的乐趣",
        "free": false,
        "address": "云南省昆明市海口镇小海口收费站右转2公里处"
    },
    {
        "id": 70,
        "city": "云南",
        "name": "丽江千古情景区",
        "level": "nan",
        "score": 0.0,
        "price": 280.0,
        "sales": 542,
        "divisions": "云南/丽江/玉龙县",
        "coordinate": {
            "lat": 26.834458,
            "lng": 100.226381
        },
        "introduction": "一生必看的演出",
        "free": false,
        "address": "云南省丽江市玉龙县玉兴西路"
    },
    {
        "id": 71,
        "city": "云南",
        "name": "傣族园",
        "level": "4A",
        "score": 5.0,
        "price": 45.0,
        "sales": 508,
        "divisions": "云南/西双版纳/景洪市",
        "coordinate": {
            "lat": 21.855821,
            "lng": 100.954223
        },
        "introduction": "梦回傣族园，聆听另一种文化",
        "free": false,
        "address": "云南省西双版纳市景洪市勐罕镇橄榄坝"
    },
    {
        "id": 72,
        "city": "云南",
        "name": "泸沽湖",
        "level": "4A",
        "score": 4.6,
        "price": 70.0,
        "sales": 486,
        "divisions": "云南/丽江/宁蒗县",
        "coordinate": {
            "lat": 27.668458,
            "lng": 100.799558
        },
        "introduction": "翠绿如画，身临其境，水天一色，清澈如镜",
        "free": false,
        "address": "云南丽江市宁蒗彝族自治县东北部永宁乡"
    },
    {
        "id": 73,
        "city": "云南",
        "name": "苍山国家地质公园",
        "level": "4A",
        "score": 4.4,
        "price": 94.3,
        "sales": 484,
        "divisions": "云南/大理/大理市",
        "coordinate": {
            "lat": 25.650175,
            "lng": 100.175674
        },
        "introduction": "绝色美景，不去就真的遗憾",
        "free": false,
        "address": "云南省大理白族自治州大理市漾濞彝族自治县"
    },
    {
        "id": 74,
        "city": "云南",
        "name": "石林",
        "level": "5A",
        "score": 3.9,
        "price": 178.0,
        "sales": 472,
        "divisions": "云南/昆明/石林彝族自治县",
        "coordinate": {
            "lat": 24.823046,
            "lng": 103.332585
        },
        "introduction": "怪石林立，突兀峥嵘，姿态各异",
        "free": false,
        "address": "云南省昆明市石林彝族自治县境内"
    },
    {
        "id": 75,
        "city": "云南",
        "name": "东风韵",
        "level": "nan",
        "score": 0.0,
        "price": 40.0,
        "sales": 462,
        "divisions": "云南/红河/弥勒县",
        "coordinate": {
            "lat": 24.312697,
            "lng": 103.405246
        },
        "introduction": "以文化艺术创意为特色的小镇",
        "free": false,
        "address": "云南省红河州弥勒市东风农场内"
    },
    {
        "id": 76,
        "city": "云南",
        "name": "鸡足山",
        "level": "4A",
        "score": 3.5,
        "price": 53.0,
        "sales": 460,
        "divisions": "云南/大理/大理市",
        "coordinate": {
            "lat": 25.958131,
            "lng": 100.400433
        },
        "introduction": "享誉南亚、东南亚的佛教圣地",
        "free": false,
        "address": "云南省大理州宾川县以西约30公里处"
    },
    {
        "id": 77,
        "city": "云南",
        "name": "噶丹松赞林寺",
        "level": "4A",
        "score": 4.5,
        "price": 90.0,
        "sales": 404,
        "divisions": "云南/迪庆/香格里拉县",
        "coordinate": {
            "lat": 27.86626,
            "lng": 99.712056
        },
        "introduction": "寻梦香格里拉，寻找消失的地平线",
        "free": false,
        "address": "云南省迪庆藏族自治州香格里拉县尼旺路下段"
    },
    {
        "id": 78,
        "city": "云南",
        "name": "九乡风景名胜区",
        "level": "4A",
        "score": 3.6,
        "price": 60.0,
        "sales": 364,
        "divisions": "云南/昆明/宜良县",
        "coordinate": {
            "lat": 25.073926,
            "lng": 103.390531
        },
        "introduction": "九乡溶洞九十九，数完溶洞白了头",
        "free": false,
        "address": "云南省昆明市宜良县九乡风景名胜区"
    },
    {
        "id": 79,
        "city": "云南",
        "name": "云南野生动物园",
        "level": "nan",
        "score": 0.0,
        "price": 97.0,
        "sales": 344,
        "divisions": "云南/昆明/盘龙区",
        "coordinate": {
            "lat": 25.101678,
            "lng": 102.795122
        },
        "introduction": "我国大型野生动物保护研究基地",
        "free": false,
        "address": "云南省昆明市盘龙区穿金路"
    },
    {
        "id": 80,
        "city": "云南",
        "name": "西双版纳勐泐文化旅游区",
        "level": "4A",
        "score": 3.8,
        "price": 108.0,
        "sales": 324,
        "divisions": "云南/西双版纳/景洪市",
        "coordinate": {
            "lat": 21.969540244135,
            "lng": 100.81375519985
        },
        "introduction": "古代傣王朝的皇家寺院",
        "free": false,
        "address": "云南省西双版纳州景洪市勐泐大道顶端4路1号"
    },
    {
        "id": 81,
        "city": "云南",
        "name": "南诏风情岛",
        "level": "4A",
        "score": 3.8,
        "price": 38.7,
        "sales": 268,
        "divisions": "云南/大理/洱源县",
        "coordinate": {
            "lat": 25.907885,
            "lng": 100.198355
        },
        "introduction": "摄影家梦开始的地方",
        "free": false,
        "address": "云南省大理白族自治州洱源县环海路双廊镇"
    },
    {
        "id": 82,
        "city": "云南",
        "name": "七彩云南古滇温泉山庄",
        "level": "nan",
        "score": 0.0,
        "price": 185.0,
        "sales": 256,
        "divisions": "云南/昆明/晋宁县",
        "coordinate": {
            "lat": 24.774281,
            "lng": 102.762433
        },
        "introduction": "养生、娱乐、美食、住宿、运动集为一体",
        "free": false,
        "address": "云南省昆明市晋宁县晋城镇新街片区三合村委会"
    },
    {
        "id": 83,
        "city": "云南",
        "name": "丽江古城",
        "level": "5A",
        "score": 5.0,
        "price": 28.0,
        "sales": 242,
        "divisions": "云南/丽江/古城区",
        "coordinate": {
            "lat": 26.881159,
            "lng": 100.240547
        },
        "introduction": "一座没有城墙的古城，依山傍水，风景秀丽",
        "free": false,
        "address": "云南省丽江市玉龙纳西族自治县东大街1号"
    },
    {
        "id": 84,
        "city": "云南",
        "name": "建水小火车",
        "level": "nan",
        "score": 0.0,
        "price": 95.0,
        "sales": 228,
        "divisions": "云南/红河/建水县",
        "coordinate": {
            "lat": 23.628677,
            "lng": 102.837955
        },
        "introduction": "百年寸轨黄金线，千年古城观光车",
        "free": false,
        "address": "云南省红河市建水县临安火车站"
    },
    {
        "id": 85,
        "city": "云南",
        "name": "苍山感通索道",
        "level": "nan",
        "score": 3.6,
        "price": 94.3,
        "sales": 216,
        "divisions": "云南/大理/大理苍山石门关景区",
        "coordinate": {
            "lat": 25.650631,
            "lng": 100.176432
        },
        "introduction": "仰望苍山雪峰,俯瞰百里洱海",
        "free": false,
        "address": "云南省大理市苍山景区感通索道"
    },
    {
        "id": 86,
        "city": "云南",
        "name": "大理海洋世界",
        "level": "nan",
        "score": 0.0,
        "price": 68.0,
        "sales": 214,
        "divisions": "云南/大理/大理市",
        "coordinate": {
            "lat": 25.687156,
            "lng": 100.322286
        },
        "introduction": "“大理海洋世界”外观呈蓝色，造型设计为波浪形，总建筑面积约2.4万平方米，其中游览观赏面积超过1.8万平方米。场馆结合云",
        "free": false,
        "address": "云南省大理白族自治州云南大理北京湾旁"
    },
    {
        "id": 87,
        "city": "云南",
        "name": "昆明动物园",
        "level": "nan",
        "score": 3.6,
        "price": 20.0,
        "sales": 212,
        "divisions": "云南/昆明/五华区",
        "coordinate": {
            "lat": 25.060346,
            "lng": 102.716251
        },
        "introduction": "花潮、动物、古寺，尤为引人",
        "free": false,
        "address": "云南省昆明市五华区青年路北段的圆通山"
    },
    {
        "id": 88,
        "city": "云南",
        "name": "昆明花都海洋世界",
        "level": "nan",
        "score": 0.0,
        "price": 145.0,
        "sales": 210,
        "divisions": "云南/昆明/呈贡区",
        "coordinate": {
            "lat": 24.901387,
            "lng": 102.787514
        },
        "introduction": "以花卉、海洋为主题的内陆高原海洋世界",
        "free": false,
        "address": "云南省昆明市呈贡区斗南花花世界"
    },
    {
        "id": 89,
        "city": "云南",
        "name": "拉市海",
        "level": "3A",
        "score": 3.8,
        "price": 29.0,
        "sales": 210,
        "divisions": "云南/丽江/玉龙县",
        "coordinate": {
            "lat": 26.896784,
            "lng": 100.145593
        },
        "introduction": "湿地自然保护区",
        "free": false,
        "address": "云南省丽江市玉龙县拉市海湿地公园"
    },
    {
        "id": 90,
        "city": "云南",
        "name": "苍山洗马潭索道",
        "level": "nan",
        "score": 3.8,
        "price": 114.0,
        "sales": 206,
        "divisions": "云南/大理/天龙八部影视城",
        "coordinate": {
            "lat": 25.686735,
            "lng": 100.154462
        },
        "introduction": "体验在山云间穿梭之美，一览苍山美景",
        "free": false,
        "address": "云南省大理白族自治州大理市苍山景区下三月街天龙八部影视城内"
    },
    {
        "id": 91,
        "city": "云南",
        "name": "昆明西山龙门景区",
        "level": "4A",
        "score": 3.7,
        "price": 67.0,
        "sales": 200,
        "divisions": "云南/昆明/西山区",
        "coordinate": {
            "lat": 24.964658,
            "lng": 102.640355
        },
        "introduction": "瞻仰文化碑林，看满清八旗遗迹",
        "free": false,
        "address": "云南省昆明市西山区西山公路"
    },
    {
        "id": 92,
        "city": "云南",
        "name": "滇池索道",
        "level": "4A",
        "score": 0.0,
        "price": 38.0,
        "sales": 188,
        "divisions": "云南/昆明/滇池",
        "coordinate": {
            "lat": 24.965776,
            "lng": 102.658903
        },
        "introduction": "既跨水又越山的索道",
        "free": false,
        "address": "云南省昆明市滇池旅游度假区湖滨路16号"
    },
    {
        "id": 93,
        "city": "云南",
        "name": "朱家花园",
        "level": "4A",
        "score": 4.1,
        "price": 18.0,
        "sales": 180,
        "divisions": "云南/红河/建水县",
        "coordinate": {
            "lat": 23.622492,
            "lng": 102.833826
        },
        "introduction": "一组规模巨大的清代民居建筑群",
        "free": false,
        "address": "云南省红河州建水县翰林街16号"
    },
    {
        "id": 94,
        "city": "云南",
        "name": "锦屏山风景区",
        "level": "nan",
        "score": 0.0,
        "price": 24.0,
        "sales": 176,
        "divisions": "云南/红河/弥勒县",
        "coordinate": {
            "lat": 24.476699,
            "lng": 103.435938
        },
        "introduction": "花木似锦，山峰连列如屏，世称锦屏",
        "free": false,
        "address": "红河州弥勒市西三镇锦屏山风景区"
    },
    {
        "id": 95,
        "city": "云南",
        "name": "望天树景区",
        "level": "4A",
        "score": 4.1,
        "price": 169.0,
        "sales": 170,
        "divisions": "云南/西双版纳/勐腊县",
        "coordinate": {
            "lat": 21.625925,
            "lng": 101.594904
        },
        "introduction": "走进望天树，亲近热带雨林",
        "free": false,
        "address": "云南省勐腊县西双版纳热带雨林国家公园望天树景区"
    },
    {
        "id": 96,
        "city": "云南",
        "name": "昆明融创海世界",
        "level": "nan",
        "score": 0.0,
        "price": 180.0,
        "sales": 158,
        "divisions": "云南/昆明/昆明融创乐园",
        "coordinate": {
            "lat": 25.021597,
            "lng": 102.659586
        },
        "introduction": "昆明融创海世界占地面积4万平方米，相当于6个标准足球场，馆内陈设78个展缸，畅游着千余种珍稀海洋生物，梦幻珊瑚花海骄傲绽",
        "free": false,
        "address": "云南省昆明市西山区碧鸡路2999-1号昆明融创海世界（2号停车场）"
    },
    {
        "id": 97,
        "city": "云南",
        "name": "天龙八部影视城",
        "level": "3A",
        "score": 3.8,
        "price": 32.0,
        "sales": 152,
        "divisions": "云南/大理/大理市",
        "coordinate": {
            "lat": 25.688114,
            "lng": 100.155122
        },
        "introduction": "为拍摄《天龙八部》兴建的拍摄基地",
        "free": false,
        "address": "云南省大理州大理古城苍山景区下"
    },
    {
        "id": 98,
        "city": "云南",
        "name": "西部大峡谷温泉",
        "level": "4A",
        "score": 0.0,
        "price": 76.0,
        "sales": 152,
        "divisions": "云南/昭通/水富县",
        "coordinate": {
            "lat": 28.644863,
            "lng": 104.377061
        },
        "introduction": "沉醉在山顶的云雾中，沐浴在升腾的水雾里",
        "free": false,
        "address": "云南省昭通市水富县金沙江畔"
    },
    {
        "id": 99,
        "city": "云南",
        "name": "普者黑",
        "level": "5A",
        "score": 5.0,
        "price": 180.0,
        "sales": 146,
        "divisions": "云南/文山/丘北县",
        "coordinate": {
            "lat": 24.123152,
            "lng": 104.13577
        },
        "introduction": "中国独一无二的喀斯特山水田园风光",
        "free": false,
        "address": "云南省文山壮族苗族自治州丘北县城西13公里"
    },
    {
        "id": 100,
        "city": "云南",
        "name": "基诺山",
        "level": "nan",
        "score": 4.2,
        "price": 152.0,
        "sales": 144,
        "divisions": "云南/西双版纳/景洪市",
        "coordinate": {
            "lat": 22.061546,
            "lng": 100.992626
        },
        "introduction": "感受原始、纯朴的民俗风情",
        "free": false,
        "address": "云南省西双版纳景洪市基诺乡"
    },
    {
        "id": 101,
        "city": "云南",
        "name": "喜洲",
        "level": "nan",
        "score": 3.9,
        "price": 15.0,
        "sales": 136,
        "divisions": "云南/大理/大理市",
        "coordinate": {
            "lat": 25.856048,
            "lng": 100.13721
        },
        "introduction": "建筑造型独具特色，庄重雄浑，古朴典雅",
        "free": false,
        "address": "云南-大理古城以北18公里处"
    },
    {
        "id": 102,
        "city": "云南",
        "name": "冰川公园",
        "level": "nan",
        "score": 3.6,
        "price": 188.0,
        "sales": 132,
        "divisions": "云南/丽江/玉龙雪山",
        "coordinate": {
            "lat": 27.104797,
            "lng": 100.260971
        },
        "introduction": "浓缩全球中低纬度山岳冰川的主要精华",
        "free": false,
        "address": "云南省丽江市玉龙纳西族自治县雪山景区内"
    },
    {
        "id": 103,
        "city": "云南",
        "name": "多依河",
        "level": "3A",
        "score": 5.0,
        "price": 40.0,
        "sales": 130,
        "divisions": "云南/曲靖/罗平县",
        "coordinate": {
            "lat": 24.768979,
            "lng": 104.507315
        },
        "introduction": "布依风情浓郁，原始古朴的水车缓慢运转",
        "free": false,
        "address": "云南省曲靖市罗平县罗乃路"
    },
    {
        "id": 104,
        "city": "云南",
        "name": "昆明西游洞",
        "level": "nan",
        "score": 0.0,
        "price": 85.0,
        "sales": 126,
        "divisions": "云南/昆明/五华区",
        "coordinate": {
            "lat": 25.147944,
            "lng": 102.648809
        },
        "introduction": "喀斯特地质溶洞，《西游记》的拍摄地",
        "free": false,
        "address": "云南省昆明市五华区昆禄公路6公里处"
    },
    {
        "id": 105,
        "city": "云南",
        "name": "坝美景区",
        "level": "3A",
        "score": 0.0,
        "price": 180.0,
        "sales": 118,
        "divisions": "云南/文山/广南县",
        "coordinate": {
            "lat": 24.319947,
            "lng": 105.047666
        },
        "introduction": "山清水秀，充满绿意，秀美世外桃源",
        "free": false,
        "address": "云南省文山壮族苗族自治州广南县"
    },
    {
        "id": 106,
        "city": "云南",
        "name": "情人树",
        "level": "nan",
        "score": 0.0,
        "price": 70.0,
        "sales": 110,
        "divisions": "云南/丽江/宁蒗县",
        "coordinate": {
            "lat": 27.679344,
            "lng": 100.841051
        },
        "introduction": "人间爱情的见证",
        "free": false,
        "address": "云南省丽江市宁蒗彝族自治县环湖公路"
    },
    {
        "id": 107,
        "city": "云南",
        "name": "西双版纳热带花卉园",
        "level": "4A",
        "score": 3.9,
        "price": 35.0,
        "sales": 110,
        "divisions": "云南/西双版纳/景洪市",
        "coordinate": {
            "lat": 22.016914,
            "lng": 100.794184
        },
        "introduction": "白白的缅桂花香气，飘进每一个傣家竹楼",
        "free": false,
        "address": "云南省西双版纳傣族自治州景洪市宣慰大道99号"
    },
    {
        "id": 108,
        "city": "云南",
        "name": "牦牛坪索道",
        "level": "nan",
        "score": 0.0,
        "price": 220.0,
        "sales": 108,
        "divisions": "云南/丽江/玉龙雪山",
        "coordinate": {
            "lat": 27.104549,
            "lng": 100.26092
        },
        "introduction": "与天然幽静古补的原始森林景观为群",
        "free": false,
        "address": "云南省丽江市玉龙纳西族自治县玉龙雪山国家风景名胜区北部"
    },
    {
        "id": 109,
        "city": "云南",
        "name": "里格半岛",
        "level": "nan",
        "score": 0.0,
        "price": 150.0,
        "sales": 106,
        "divisions": "云南/丽江/宁蒗县",
        "coordinate": {
            "lat": 27.733882,
            "lng": 100.758068
        },
        "introduction": "宛如仙境的小岛",
        "free": false,
        "address": "云南省丽江市宁蒗彝族自治县"
    },
    {
        "id": 110,
        "city": "云南",
        "name": "湄公河水底世界",
        "level": "nan",
        "score": 0.0,
        "price": 98.0,
        "sales": 98,
        "divisions": "云南/西双版纳",
        "coordinate": {
            "lat": 22.033484,
            "lng": 100.880826
        },
        "introduction": "湄公河水底世界里面有各种海洋鱼类，水母等！有美人鱼剧场表演，有震撼的7D飞跃湄公河8分钟带您体验一江通六国的奇幻之旅。",
        "free": false,
        "address": "西双版纳原始森林公园湄公河水底世界"
    },
    {
        "id": 111,
        "city": "云南",
        "name": "古滇朵拉萌宠乐园",
        "level": "nan",
        "score": 0.0,
        "price": 58.0,
        "sales": 96,
        "divisions": "云南/昆明/晋宁县",
        "coordinate": {
            "lat": 24.77143,
            "lng": 102.762156
        },
        "introduction": "古滇朵拉萌宠乐园位于昆明市七彩云南•古滇名城项目内，占地117亩，是北京朵拉爱萌旅游开发股份有限公司秉承 “回归本真、融",
        "free": false,
        "address": "昆明市晋宁区经十一路1号"
    },
    {
        "id": 112,
        "city": "云南",
        "name": "昆明小人国",
        "level": "nan",
        "score": 0.0,
        "price": 90.0,
        "sales": 96,
        "divisions": "云南/昆明/世界蝴蝶生态园",
        "coordinate": {
            "lat": 24.858553,
            "lng": 102.624528
        },
        "introduction": "100多个袖珍人给您带来精彩的演出",
        "free": false,
        "address": "云南省昆明市西山区碧鸡镇黑荞母村"
    },
    {
        "id": 113,
        "city": "云南",
        "name": "普达措国家公园",
        "level": "5A",
        "score": 4.4,
        "price": 100.0,
        "sales": 96,
        "divisions": "云南/迪庆/香格里拉县",
        "coordinate": {
            "lat": 27.807468,
            "lng": 99.91451
        },
        "introduction": "张杰谢娜婚礼之地，原始森林中的伊甸园",
        "free": false,
        "address": "云南省迪庆藏族自治州香格里拉县建塘镇双桥"
    },
    {
        "id": 114,
        "city": "云南",
        "name": "洱海",
        "level": "4A",
        "score": 5.0,
        "price": 113.5,
        "sales": 94,
        "divisions": "云南/大理/大理市",
        "coordinate": {
            "lat": 25.610132,
            "lng": 100.262195
        },
        "introduction": "邂逅爱情的绝佳之地",
        "free": false,
        "address": "云南省大理市下关洱河南路1号"
    },
    {
        "id": 115,
        "city": "云南",
        "name": "可邑小镇",
        "level": "nan",
        "score": 0.0,
        "price": 35.0,
        "sales": 94,
        "divisions": "云南/红河/弥勒县",
        "coordinate": {
            "lat": 24.519569,
            "lng": 103.373326
        },
        "introduction": "感受原汁原味的彝族生态文化",
        "free": false,
        "address": "云南省红河哈尼族彝族自治州弥勒县城22公里（西三镇可邑村）"
    },
    {
        "id": 116,
        "city": "云南",
        "name": "傣秀剧场",
        "level": "nan",
        "score": 0.0,
        "price": 328.0,
        "sales": 84,
        "divisions": "云南/西双版纳/景洪市",
        "coordinate": {
            "lat": 22.018279,
            "lng": 100.771566
        },
        "introduction": "傣秀剧场将传统元素与现代科技高度融合",
        "free": false,
        "address": "云南省西双版纳景洪市嘎栋工业区融创国际度假区傣秀剧院"
    },
    {
        "id": 117,
        "city": "云南",
        "name": "大理古城",
        "level": "nan",
        "score": 4.8,
        "price": 0.4,
        "sales": 82,
        "divisions": "云南/大理/大理市",
        "coordinate": {
            "lat": 25.693527,
            "lng": 100.170462
        },
        "introduction": "在静谧中悠远，美得不经意却那么沁人心脾",
        "free": false,
        "address": "云南大理市下关"
    },
    {
        "id": 118,
        "city": "云南",
        "name": "珠江源",
        "level": "4A",
        "score": 4.6,
        "price": 25.0,
        "sales": 78,
        "divisions": "云南/曲靖/沾益县",
        "coordinate": {
            "lat": 25.905147,
            "lng": 103.957184
        },
        "introduction": "天高云淡，尽享大自然的无限风光",
        "free": false,
        "address": "云南省曲靖市沾益县境内的马雄山麓"
    },
    {
        "id": 119,
        "city": "云南",
        "name": "昆明直通车",
        "level": "nan",
        "score": 0.0,
        "price": 99.0,
        "sales": 78,
        "divisions": "云南/昆明",
        "coordinate": {
            "lat": 25.042577,
            "lng": 102.668492
        },
        "introduction": "为您的出行提供方便",
        "free": false,
        "address": "云南省昆明市"
    },
    {
        "id": 120,
        "city": "云南",
        "name": "印象丽江",
        "level": "nan",
        "score": 0.0,
        "price": 196.0,
        "sales": 78,
        "divisions": "云南/丽江/玉龙雪山",
        "coordinate": {
            "lat": 27.103086,
            "lng": 100.265002
        },
        "introduction": "洗涤灵魂的演出盛宴",
        "free": false,
        "address": "云南省丽江市玉龙县玉龙雪山甘海子蓝月谷剧场"
    },
    {
        "id": 121,
        "city": "云南",
        "name": "云花谷",
        "level": "nan",
        "score": 0.0,
        "price": 15.0,
        "sales": 76,
        "divisions": "云南/昆明/五华区",
        "coordinate": {
            "lat": 25.195885,
            "lng": 102.699297
        },
        "introduction": "项目以河谷内自然地貌为底色和骨架，打造云南首 个好看好玩的立体花园，让人们暂离城市的喧嚣，回归淳璞自然，享受高原蓝天花海",
        "free": false,
        "address": "昆明市五华区西翥街道三多大村"
    },
    {
        "id": 122,
        "city": "云南",
        "name": "西双版纳热带动物园",
        "level": "nan",
        "score": 0.0,
        "price": 39.0,
        "sales": 76,
        "divisions": "云南/西双版纳/景洪市",
        "coordinate": {
            "lat": 22.002923,
            "lng": 100.799386
        },
        "introduction": "热带动植物，浓郁民族风，西双版纳的小缩影",
        "free": false,
        "address": "云南省西双版纳傣族自治州景洪市"
    },
    {
        "id": 123,
        "city": "云南",
        "name": "蓝月谷",
        "level": "5A",
        "score": 0.0,
        "price": 188.0,
        "sales": 76,
        "divisions": "云南/丽江/玉龙雪山",
        "coordinate": {
            "lat": 27.131616,
            "lng": 100.251243
        },
        "introduction": "撒在玉龙雪山中的蓝宝石",
        "free": false,
        "address": "云南省丽江市玉龙纳西族自治县15公里处玉龙雪山国家级风景名胜区内"
    },
    {
        "id": 124,
        "city": "云南",
        "name": "蝴蝶泉",
        "level": "3A",
        "score": 4.0,
        "price": 32.0,
        "sales": 70,
        "divisions": "云南/大理/大理市",
        "coordinate": {
            "lat": 25.913304,
            "lng": 100.108928
        },
        "introduction": "蝴蝶泉“三绝”：泉、蝶、树",
        "free": false,
        "address": "云南省大理白族自治州苍山云弄峰下"
    },
    {
        "id": 125,
        "city": "云南",
        "name": "云南寒武纪小镇欢乐大世界·海豚暂养馆（抚仙湖）",
        "level": "nan",
        "score": 0.0,
        "price": 98.0,
        "sales": 70,
        "divisions": "云南/玉溪/澄江县",
        "coordinate": {
            "lat": 24.631911,
            "lng": 102.966621
        },
        "introduction": "云南寒武纪小镇欢乐大世界是由上海百汇星融投资控股有限公司打造的重点旅游度假项目，该项目位于云南抚仙湖东北岸，集澄江化石博",
        "free": false,
        "address": "云南玉溪市澄江市右所镇环湖北路9号"
    },
    {
        "id": 126,
        "city": "云南",
        "name": "大观楼",
        "level": "4A",
        "score": 4.0,
        "price": 20.0,
        "sales": 70,
        "divisions": "云南/昆明/西山区",
        "coordinate": {
            "lat": 25.030081,
            "lng": 102.680412
        },
        "introduction": "百年宅倾世之赞，文脉之大观楼",
        "free": false,
        "address": "云南省昆明市西山区大观路72号"
    },
    {
        "id": 127,
        "city": "云南",
        "name": "昆明青龙峡",
        "level": "nan",
        "score": 0.0,
        "price": 35.0,
        "sales": 70,
        "divisions": "云南/昆明/安宁市",
        "coordinate": {
            "lat": 25.068699,
            "lng": 102.378741
        },
        "introduction": "古藤缠绕，溪流吟唱，一片纯洁的净土",
        "free": false,
        "address": "云南省昆明安宁市青龙镇青龙峡风景区"
    },
    {
        "id": 128,
        "city": "云南",
        "name": "玉龙雪山索道",
        "level": "nan",
        "score": 0.0,
        "price": 368.0,
        "sales": 70,
        "divisions": "云南/丽江/玉龙雪山",
        "coordinate": {
            "lat": 27.105602,
            "lng": 100.25989
        },
        "introduction": "先进的索道，体验更快捷更安全",
        "free": false,
        "address": "云南省丽江市玉龙纳西族自治县"
    },
    {
        "id": 129,
        "city": "云南",
        "name": "武定狮子山",
        "level": "4A",
        "score": 3.7,
        "price": 65.0,
        "sales": 68,
        "divisions": "云南/楚雄/武定县",
        "coordinate": {
            "lat": 25.539995,
            "lng": 102.385484
        },
        "introduction": "自然风光秀甲滇中，是西南的一座奇山",
        "free": false,
        "address": "云南省楚雄彝族自治州武定县"
    },
    {
        "id": 130,
        "city": "云南",
        "name": "普洱国家公园犀牛坪",
        "level": "nan",
        "score": 0.0,
        "price": 118.0,
        "sales": 64,
        "divisions": "云南/普洱/思茅区",
        "coordinate": {
            "lat": 22.597686,
            "lng": 101.113741
        },
        "introduction": "北回归线上稀有的生物资源宝库",
        "free": false,
        "address": "云南省普洱市思茅区东南38公里太阳河"
    },
    {
        "id": 131,
        "city": "云南",
        "name": "挖色镇",
        "level": "nan",
        "score": 0.0,
        "price": 108.0,
        "sales": 62,
        "divisions": "云南/大理/洱海",
        "coordinate": {
            "lat": 25.829511,
            "lng": 100.231859
        },
        "introduction": "白族本土文化发源地之一",
        "free": false,
        "address": "云南省大理市洱海东岸"
    },
    {
        "id": 132,
        "city": "云南",
        "name": "腾冲北海湿地",
        "level": "3A",
        "score": 4.6,
        "price": 55.0,
        "sales": 62,
        "divisions": "云南/保山/腾冲",
        "coordinate": {
            "lat": 25.126175,
            "lng": 98.56517
        },
        "introduction": "资源丰富的国家湿地保护区",
        "free": false,
        "address": "云南省保山市腾冲县北海村"
    },
    {
        "id": 133,
        "city": "云南",
        "name": "弥勒湖泉酒店半山温泉",
        "level": "nan",
        "score": 0.0,
        "price": 166.0,
        "sales": 62,
        "divisions": "云南/红河/弥勒县",
        "coordinate": {
            "lat": 24.409664,
            "lng": 103.410428
        },
        "introduction": "水质清澈透明、轻滑柔顺",
        "free": false,
        "address": "云南红河弥勒湖泉酒店半山温泉中心售票处（E座旁边）"
    },
    {
        "id": 134,
        "city": "云南",
        "name": "观音峡",
        "level": "4A",
        "score": 3.5,
        "price": 190.0,
        "sales": 58,
        "divisions": "云南/丽江/古城区",
        "coordinate": {
            "lat": 26.766885,
            "lng": 100.276078
        },
        "introduction": "秀丽峡谷风光，古朴纳西风情",
        "free": false,
        "address": "云南省丽江市东南17公里处的七河乡"
    },
    {
        "id": 135,
        "city": "云南",
        "name": "花之城",
        "level": "nan",
        "score": 0.0,
        "price": 18.9,
        "sales": 56,
        "divisions": "云南/昆明/盘龙区",
        "coordinate": {
            "lat": 25.059343,
            "lng": 102.795125
        },
        "introduction": "云南之行，美之一站",
        "free": false,
        "address": "云南省昆明市盘龙区金瓦路8188号"
    },
    {
        "id": 136,
        "city": "内蒙古",
        "name": "响沙湾",
        "level": "5A",
        "score": 4.2,
        "price": 82.0,
        "sales": 244,
        "divisions": "内蒙古/鄂尔多斯/达拉特旗",
        "coordinate": {
            "lat": 40.249002,
            "lng": 109.968018
        },
        "introduction": "跟随骆驼队，踏上一段神秘之旅",
        "free": false,
        "address": "内蒙古鄂尔多斯市达拉特旗响沙湾景区"
    },
    {
        "id": 137,
        "city": "内蒙古",
        "name": "大召寺",
        "level": "3A",
        "score": 4.5,
        "price": 34.0,
        "sales": 232,
        "divisions": "内蒙古/呼和浩特/玉泉区",
        "coordinate": {
            "lat": 40.80594,
            "lng": 111.660429
        },
        "introduction": "霸气侧漏皇上住过地方果然不一样",
        "free": false,
        "address": "内蒙古呼和浩特市玉泉区大召前街大召寺"
    },
    {
        "id": 138,
        "city": "内蒙古",
        "name": "腾格里沙漠",
        "level": "nan",
        "score": 0.0,
        "price": 3.0,
        "sales": 156,
        "divisions": "内蒙古/阿拉善盟/阿拉善左旗",
        "coordinate": {
            "lat": 37.600763,
            "lng": 104.968104
        },
        "introduction": "大漠浩瀚，苍凉雄浑，千里起伏连绵的沙丘",
        "free": false,
        "address": "内蒙古自治区阿拉善盟阿拉善左旗"
    },
    {
        "id": 139,
        "city": "内蒙古",
        "name": "希拉穆仁草原",
        "level": "nan",
        "score": 5.0,
        "price": 140.0,
        "sales": 132,
        "divisions": "内蒙古/包头/达尔罕旗",
        "coordinate": {
            "lat": 41.329536,
            "lng": 111.235959
        },
        "introduction": "绿草如茵，鲜花遍地，景色使人如痴如醉",
        "free": false,
        "address": "内蒙古包头市达尔罕茂明安联合旗东南部"
    },
    {
        "id": 140,
        "city": "内蒙古",
        "name": "鄂尔多斯野生动物园",
        "level": "4A",
        "score": 0.0,
        "price": 120.0,
        "sales": 90,
        "divisions": "内蒙古/鄂尔多斯/东胜区",
        "coordinate": {
            "lat": 39.845437,
            "lng": 109.897155
        },
        "introduction": "春天带孩子与小动物们亲密接触吧",
        "free": false,
        "address": "内蒙古鄂尔多斯东胜铁西区三园路1号"
    },
    {
        "id": 141,
        "city": "内蒙古",
        "name": "五当召",
        "level": "4A",
        "score": 3.9,
        "price": 54.9,
        "sales": 62,
        "divisions": "内蒙古/包头/石拐区",
        "coordinate": {
            "lat": 40.797434,
            "lng": 110.320996
        },
        "introduction": "气势雄伟，富现堂皇，有小布达拉宫之称",
        "free": false,
        "address": "内蒙古省包头石拐区青五线五当沟"
    },
    {
        "id": 142,
        "city": "内蒙古",
        "name": "腾格里沙漠营地",
        "level": "nan",
        "score": 0.0,
        "price": 80.0,
        "sales": 60,
        "divisions": "内蒙古/阿拉善盟/阿拉善左旗",
        "coordinate": {
            "lat": 37.62182,
            "lng": 104.914478
        },
        "introduction": "腾格里沙漠营地位于腾格里沙漠境内，气候极度干燥，景色可与摩洛哥相媲美。在这里，你可以在腾格沙漠里骑骆驼、玩越野车冲沙、沙",
        "free": false,
        "address": "内蒙古自治区阿拉善盟阿拉善左旗水稍子生态旅游区向西1000米"
    },
    {
        "id": 143,
        "city": "内蒙古",
        "name": "包头海洋世界",
        "level": "nan",
        "score": 0.0,
        "price": 158.0,
        "sales": 50,
        "divisions": "内蒙古/包头/青山区",
        "coordinate": {
            "lat": 40.664787,
            "lng": 109.86668
        },
        "introduction": "一座风格独特的海洋主题游乐馆",
        "free": false,
        "address": "内蒙古自治区包头市青山区钢铁大街7号正翔国际广场海洋世界"
    },
    {
        "id": 144,
        "city": "内蒙古",
        "name": "室韦俄罗斯民族乡",
        "level": "nan",
        "score": 3.6,
        "price": 450.0,
        "sales": 48,
        "divisions": "内蒙古/呼伦贝尔/额尔古纳市",
        "coordinate": {
            "lat": 50.822025,
            "lng": 119.937861
        },
        "introduction": "蒙古族祖先——蒙兀室韦部落的发祥地",
        "free": false,
        "address": "内蒙古呼伦贝尔额尔古纳市中俄边界的额尔古纳河边"
    },
    {
        "id": 145,
        "city": "内蒙古",
        "name": "库布其沙漠",
        "level": "3A",
        "score": 4.2,
        "price": 28.0,
        "sales": 40,
        "divisions": "内蒙古/鄂尔多斯/达拉特旗",
        "coordinate": {
            "lat": 40.323151,
            "lng": 109.89159
        },
        "introduction": "让您与大自然亲近，让探险之梦成真",
        "free": false,
        "address": "内蒙古鄂尔多斯市展旦召"
    },
    {
        "id": 146,
        "city": "内蒙古",
        "name": "蒙亮民族风情园",
        "level": "3A",
        "score": 0.0,
        "price": 108.0,
        "sales": 38,
        "divisions": "内蒙古/呼和浩特/玉泉区",
        "coordinate": {
            "lat": 40.823487,
            "lng": 111.657615
        },
        "introduction": "民族工艺品生产",
        "free": false,
        "address": "内蒙古呼和浩特市玉泉区新华西街299号"
    },
    {
        "id": 147,
        "city": "内蒙古",
        "name": "红格尔敖包景区",
        "level": "nan",
        "score": 0.0,
        "price": 106.0,
        "sales": 34,
        "divisions": "内蒙古/包头/达尔罕旗",
        "coordinate": {
            "lat": 41.405805,
            "lng": 111.200184
        },
        "introduction": "置身成吉思汗时期战火硝烟的感觉",
        "free": false,
        "address": "内蒙古包头达尔罕茂明安联合旗希拉穆仁草原"
    },
    {
        "id": 148,
        "city": "内蒙古",
        "name": "辉腾锡勒草原",
        "level": "3A",
        "score": 5.0,
        "price": 218.0,
        "sales": 32,
        "divisions": "内蒙古/乌兰察布/察哈尔右翼中旗",
        "coordinate": {
            "lat": 41.428507,
            "lng": 112.47071
        },
        "introduction": "格调苍茫雄浑，色彩明媚清秀，甚为壮观",
        "free": false,
        "address": "内蒙古省乌兰察布察哈尔右翼中旗"
    },
    {
        "id": 149,
        "city": "内蒙古",
        "name": "鄂尔多斯草原旅游区",
        "level": "4A",
        "score": 3.6,
        "price": 9.0,
        "sales": 30,
        "divisions": "内蒙古/鄂尔多斯/杭锦旗",
        "coordinate": {
            "lat": 39.817608,
            "lng": 108.634832
        },
        "introduction": "鄂尔多斯草原，因你而美",
        "free": false,
        "address": "内蒙古鄂尔多斯杭锦旗锡尼镇西南9公里处"
    },
    {
        "id": 150,
        "city": "内蒙古",
        "name": "成吉思汗陵",
        "level": "5A",
        "score": 0.0,
        "price": 90.0,
        "sales": 28,
        "divisions": "内蒙古/鄂尔多斯/伊金霍洛旗",
        "coordinate": {
            "lat": 39.376552,
            "lng": 109.793039
        },
        "introduction": "世界蒙古民族心灵胜地",
        "free": false,
        "address": "内蒙古鄂尔多斯市伊金霍洛旗伊金霍洛镇"
    },
    {
        "id": 151,
        "city": "内蒙古",
        "name": "美岱召",
        "level": "4A",
        "score": 3.7,
        "price": 28.0,
        "sales": 28,
        "divisions": "内蒙古/包头/土默特右旗",
        "coordinate": {
            "lat": 40.610486,
            "lng": 110.716041
        },
        "introduction": "是一座“城寺结合，人佛共居”的喇嘛庙",
        "free": false,
        "address": "内蒙古自治区包头市土默特右旗美岱召镇110国道北面"
    },
    {
        "id": 152,
        "city": "内蒙古",
        "name": "万家惠欢乐水世界",
        "level": "nan",
        "score": 0.0,
        "price": 95.0,
        "sales": 20,
        "divisions": "内蒙古/鄂尔多斯/万家惠欢乐世界",
        "coordinate": {
            "lat": 39.850945,
            "lng": 109.950485
        },
        "introduction": "万家惠欢乐世界位于鄂尔多斯市东胜区铁西万家惠，是国家4A级旅游景区，是集休闲、度假、娱乐、旅游、文化、商业于一体的大型综",
        "free": false,
        "address": "鄂尔多斯市东胜区永昌路47号万家惠欢乐世界"
    },
    {
        "id": 153,
        "city": "内蒙古",
        "name": "玉龙沙湖",
        "level": "4A",
        "score": 3.8,
        "price": 75.0,
        "sales": 18,
        "divisions": "内蒙古/赤峰/翁牛特旗",
        "coordinate": {
            "lat": 43.041299,
            "lng": 119.039915
        },
        "introduction": "有“八百里瀚海”之称",
        "free": false,
        "address": "内蒙古赤峰市翁牛特旗乌丹镇布日敦嘎查境内"
    },
    {
        "id": 154,
        "city": "内蒙古",
        "name": "梅力更",
        "level": "3A",
        "score": 3.6,
        "price": 1.3,
        "sales": 16,
        "divisions": "内蒙古/包头/九原区",
        "coordinate": {
            "lat": 40.671363,
            "lng": 109.4542
        },
        "introduction": "远离城市喧嚣的天然氧吧",
        "free": false,
        "address": "内蒙古省包头市梅力更沟110国道724公里处"
    },
    {
        "id": 155,
        "city": "内蒙古",
        "name": "莫尼山非遗小镇",
        "level": "nan",
        "score": 0.0,
        "price": 48.0,
        "sales": 16,
        "divisions": "内蒙古/呼和浩特",
        "coordinate": {
            "lat": 40.90893701414145,
            "lng": 111.58584220304894
        },
        "introduction": "nan",
        "free": false,
        "address": "104省道呼武路段"
    },
    {
        "id": 156,
        "city": "内蒙古",
        "name": "神泉生态旅游景区",
        "level": "4A",
        "score": 0.0,
        "price": 120.0,
        "sales": 16,
        "divisions": "内蒙古/呼和浩特/托克托县",
        "coordinate": {
            "lat": 40.192416,
            "lng": 111.224949
        },
        "introduction": "九曲黄河十八弯，塞北大漠游神泉",
        "free": false,
        "address": "内蒙古呼和浩特市托克托县旧城郝家窑村"
    },
    {
        "id": 157,
        "city": "内蒙古",
        "name": "蒙古源流旅游区",
        "level": "4A",
        "score": 0.0,
        "price": 90.0,
        "sales": 14,
        "divisions": "内蒙古/鄂尔多斯/伊金霍洛旗",
        "coordinate": {
            "lat": 39.507376,
            "lng": 109.756778
        },
        "introduction": "蒙古源流文化产业园区坐落于一代天骄成吉思汗陵所在地——鄂尔多斯伊金霍洛旗，位于“呼包鄂”金三角和“蒙晋陕宁”四省的交汇处",
        "free": false,
        "address": "内蒙古鄂尔多斯伊金霍洛旗蒙古源流文化产业园区"
    },
    {
        "id": 158,
        "city": "内蒙古",
        "name": "希拉穆仁草原花海",
        "level": "nan",
        "score": 0.0,
        "price": 150.0,
        "sales": 12,
        "divisions": "内蒙古/包头/达尔罕旗",
        "coordinate": {
            "lat": 41.336216,
            "lng": 111.151103
        },
        "introduction": "体会独特浓郁的蒙古民族文化风情",
        "free": false,
        "address": "内蒙古自治区包头市达尔罕茂明安联合旗东南部希拉穆仁镇"
    },
    {
        "id": 159,
        "city": "内蒙古",
        "name": "乌兰哈达火山地质公园",
        "level": "nan",
        "score": 0.0,
        "price": 200.0,
        "sales": 10,
        "divisions": "内蒙古/乌兰察布",
        "coordinate": {
            "lat": 41.609541,
            "lng": 113.138106
        },
        "introduction": "内蒙古乌兰哈达火山地质公园位于内蒙古自治区乌兰察布市察右后旗乌兰哈达苏木境内， 距北京仅380公里，公园面积65.9平方",
        "free": false,
        "address": "内蒙古自治区乌兰察布市察哈尔右翼后旗"
    },
    {
        "id": 160,
        "city": "内蒙古",
        "name": "西部梦幻峡谷",
        "level": "nan",
        "score": 0.0,
        "price": 58.0,
        "sales": 8,
        "divisions": "内蒙古/阿拉善盟/阿拉善左旗",
        "coordinate": {
            "lat": 40.456089,
            "lng": 106.223699
        },
        "introduction": "西部梦幻峡谷位于敖伦布拉格镇西北向26公里处，它全长5公里，高度约20--30米左右，这里是典型的早期水流形成的丹霞地貌",
        "free": false,
        "address": "内蒙古阿拉善左旗敖伦布拉格镇阴山余脉中"
    },
    {
        "id": 161,
        "city": "内蒙古",
        "name": "库伦银沙湾",
        "level": "5A",
        "score": 0.0,
        "price": 108.0,
        "sales": 6,
        "divisions": "内蒙古/通辽/库伦旗",
        "coordinate": {
            "lat": 42.852563,
            "lng": 121.633213
        },
        "introduction": "沙漠探险、民族风情",
        "free": false,
        "address": "内蒙古自治区通辽市库伦旗库伦镇道老都嘎查路北银沙湾路1号"
    },
    {
        "id": 162,
        "city": "内蒙古",
        "name": "七星湖沙漠风景区",
        "level": "4A",
        "score": 3.5,
        "price": 70.0,
        "sales": 6,
        "divisions": "内蒙古/鄂尔多斯/杭锦旗",
        "coordinate": {
            "lat": 40.706882,
            "lng": 108.353845
        },
        "introduction": "湖水旖旎，水波不惊",
        "free": false,
        "address": "内蒙古省鄂尔多斯市杭锦旗独贵塔拉镇"
    },
    {
        "id": 163,
        "city": "内蒙古",
        "name": "林胡古塞",
        "level": "nan",
        "score": 0.0,
        "price": 88.0,
        "sales": 4,
        "divisions": "内蒙古/乌兰察布/卓资县",
        "coordinate": {
            "lat": 40.779697,
            "lng": 112.333073
        },
        "introduction": "山水休闲旅游目的地",
        "free": false,
        "address": "内蒙古乌兰察布市卓资县大榆树乡"
    },
    {
        "id": 164,
        "city": "内蒙古",
        "name": "辉腾锡勒（黄花沟）草原旅游区",
        "level": "4A",
        "score": 3.6,
        "price": 130.0,
        "sales": 4,
        "divisions": "内蒙古/乌兰察布/察哈尔右翼中旗",
        "coordinate": {
            "lat": 41.150495,
            "lng": 112.549465
        },
        "introduction": "牛羊游动，牧歌撩亮，堪称塞外江南",
        "free": false,
        "address": "内蒙古乌兰察布察哈尔右翼中旗辉腾锡勒草原"
    },
    {
        "id": 165,
        "city": "内蒙古",
        "name": "成吉思汗陵旅游景区",
        "level": "5A",
        "score": 5.0,
        "price": 0.8,
        "sales": 4,
        "divisions": "内蒙古/鄂尔多斯/伊金霍洛旗",
        "coordinate": {
            "lat": 39.369384,
            "lng": 109.832426
        },
        "introduction": "真实再现成吉思汗率军出征实景的大型军阵",
        "free": false,
        "address": "内蒙古省鄂尔多斯市伊金霍洛旗伊金霍洛镇"
    },
    {
        "id": 166,
        "city": "内蒙古",
        "name": "碧海云天(中山西路店）",
        "level": "nan",
        "score": 0.0,
        "price": 139.0,
        "sales": 4,
        "divisions": "内蒙古/呼和浩特/回民区",
        "coordinate": {
            "lat": 40.814308,
            "lng": 111.663508
        },
        "introduction": "沐浴主题连锁会馆",
        "free": false,
        "address": "内蒙古自治区呼和浩特市中山西路40号"
    },
    {
        "id": 167,
        "city": "内蒙古",
        "name": "二连浩特国家地质公园",
        "level": "4A",
        "score": 0.0,
        "price": 47.0,
        "sales": 4,
        "divisions": "内蒙古/锡林郭勒盟/二连浩特",
        "coordinate": {
            "lat": 43.728264,
            "lng": 112.02525
        },
        "introduction": "恐龙化石群遗迹为主体景观的国家地质公园",
        "free": false,
        "address": "内蒙古锡林郭勒盟二连浩特市市区东北9公里处"
    },
    {
        "id": 168,
        "city": "内蒙古",
        "name": "呼伦贝尔民族博物馆",
        "level": "nan",
        "score": 0.0,
        "price": 200.0,
        "sales": 4,
        "divisions": "内蒙古/呼伦贝尔/海拉尔区",
        "coordinate": {
            "lat": 49.218762,
            "lng": 119.772346
        },
        "introduction": "原始时代的呼伦贝尔",
        "free": false,
        "address": "内蒙古呼伦贝尔市海拉尔区"
    },
    {
        "id": 169,
        "city": "内蒙古",
        "name": "金本道汤泉",
        "level": "nan",
        "score": 0.0,
        "price": 29.9,
        "sales": 2,
        "divisions": "内蒙古/呼和浩特/赛罕区",
        "coordinate": {
            "lat": 40.820235,
            "lng": 111.72081
        },
        "introduction": "健康、养生、时尚的汗蒸汤泉",
        "free": false,
        "address": "内蒙古呼和浩特市赛罕区东影南路半亩地后边"
    },
    {
        "id": 170,
        "city": "内蒙古",
        "name": "青水瓦台汤泉（中山店）",
        "level": "nan",
        "score": 0.0,
        "price": 49.0,
        "sales": 2,
        "divisions": "内蒙古/呼和浩特/回民区",
        "coordinate": {
            "lat": 40.817123,
            "lng": 111.669821
        },
        "introduction": "汤泉内洗浴设施：竹炭房、玉石房、盐房、汗蒸房、桑拿房、浴池；\n\n休闲设施：儿童游乐场、网吧、客房、图书馆、按摩房、休息厅",
        "free": false,
        "address": "呼和浩特市回民区中山西路富邦商厦3楼"
    },
    {
        "id": 171,
        "city": "内蒙古",
        "name": "RS国际卡丁车俱乐部",
        "level": "nan",
        "score": 0.0,
        "price": 78.0,
        "sales": 2,
        "divisions": "内蒙古/乌兰察布/集宁区",
        "coordinate": {
            "lat": 41.135264,
            "lng": 113.07923
        },
        "introduction": "RS国际卡丁车俱乐部是内蒙古自治区规模较大、较具专业专业的卡丁车赛车场。是一家以赛车文化为依托采用良好的设施和服务，广结",
        "free": false,
        "address": "乌兰察布市察哈尔右翼前旗S310省道机场立交北3公里农耕文化园内"
    },
    {
        "id": 172,
        "city": "内蒙古",
        "name": "通辽蓝湾温泉",
        "level": "nan",
        "score": 0.0,
        "price": 28.0,
        "sales": 2,
        "divisions": "内蒙古/通辽/科尔沁左翼中旗",
        "coordinate": {
            "lat": 44.129233,
            "lng": 123.285624
        },
        "introduction": "设计独特，规模宏大，营造幽雅、安静、舒适、高尚的休闲氛围，颇具特色的风格。为消费者提供优雅、舒适、健康、多样化娱乐的一站",
        "free": false,
        "address": "内蒙古通辽市科尔沁左翼中旗保康水域蓝湾南门东100米"
    },
    {
        "id": 173,
        "city": "内蒙古",
        "name": "金帐汗蒙古部落",
        "level": "4A",
        "score": 4.1,
        "price": 128.0,
        "sales": 2,
        "divisions": "内蒙古/呼伦贝尔/陈巴尔虎旗",
        "coordinate": {
            "lat": 49.511912,
            "lng": 119.788654
        },
        "introduction": "以游牧部落为景观的景点",
        "free": false,
        "address": "内蒙古呼伦贝尔市陈巴尔虎旗呼伦贝尔草原德莫尔格勒河畔"
    },
    {
        "id": 174,
        "city": "内蒙古",
        "name": "北方兵器城",
        "level": "4A",
        "score": 3.5,
        "price": 15.0,
        "sales": 2,
        "divisions": "内蒙古/包头/青山区",
        "coordinate": {
            "lat": 40.687036009509,
            "lng": 109.88557462447
        },
        "introduction": "展示北重集团为国防事业作出的突出贡献",
        "free": false,
        "address": "内蒙古包头市青山区兵工路"
    },
    {
        "id": 175,
        "city": "内蒙古",
        "name": "根河源国家湿地公园",
        "level": "4A",
        "score": 0.0,
        "price": 500.0,
        "sales": 64,
        "divisions": "内蒙古/呼伦贝尔/根河市",
        "coordinate": {
            "lat": 50.872078,
            "lng": 121.675649
        },
        "introduction": "多功能大型景区",
        "free": false,
        "address": "内蒙古呼伦贝尔市根河市"
    },
    {
        "id": 176,
        "city": "内蒙古",
        "name": "巴尔虎部落",
        "level": "4A",
        "score": 0.0,
        "price": 180.0,
        "sales": 59,
        "divisions": "内蒙古/呼伦贝尔/新巴尔虎左旗",
        "coordinate": {
            "lat": 47.702073,
            "lng": 119.284674
        },
        "introduction": "展现原生态巴尔虎民族的旅游景点",
        "free": false,
        "address": "内蒙古呼伦贝尔市新巴尔虎左旗绥满公路301国道旁1494公里处"
    },
    {
        "id": 177,
        "city": "内蒙古",
        "name": "古榆园旅游区",
        "level": "3A",
        "score": 0.0,
        "price": 25.0,
        "sales": 62,
        "divisions": "内蒙古/通辽/开鲁县",
        "coordinate": {
            "lat": 43.573951,
            "lng": 121.077151
        },
        "introduction": "古榆风采千年依旧，衍生许多神奇传说",
        "free": false,
        "address": "内蒙古通辽市开鲁县大榆树镇，距开鲁县城西20公里"
    },
    {
        "id": 178,
        "city": "内蒙古",
        "name": "呼伦贝尔古城",
        "level": "3A",
        "score": 0.0,
        "price": 200.0,
        "sales": 61,
        "divisions": "内蒙古/呼伦贝尔",
        "coordinate": {
            "lat": 48.591085,
            "lng": 124.333798
        },
        "introduction": "一座见证过历史变迁、商业沉浮的古城",
        "free": false,
        "address": "内蒙古自治区呼伦贝尔市莫力达瓦达斡尔族自治旗"
    },
    {
        "id": 179,
        "city": "内蒙古",
        "name": "腾格里沙漠月亮湖",
        "level": "4A",
        "score": 0.0,
        "price": 90.0,
        "sales": 54,
        "divisions": "内蒙古/阿拉善盟/阿拉善左旗",
        "coordinate": {
            "lat": 38.503858,
            "lng": 105.277302
        },
        "introduction": "集沙漠探险旅游、娱乐休假为一体",
        "free": false,
        "address": "内蒙古阿拉善盟阿拉善左旗腾格里沙漠腹地"
    },
    {
        "id": 180,
        "city": "内蒙古",
        "name": "内蒙古博物馆",
        "level": "nan",
        "score": 4.1,
        "price": 785.0,
        "sales": 92,
        "divisions": "内蒙古/呼和浩特/新城区",
        "coordinate": {
            "lat": 40.828515,
            "lng": 111.683115
        },
        "introduction": "馆内文物具有鲜明的民族特色和地方特点",
        "free": false,
        "address": "内蒙古呼和浩特市新城区新华东街27号"
    },
    {
        "id": 181,
        "city": "内蒙古",
        "name": "杨树沟地下瀑布群",
        "level": "nan",
        "score": 3.5,
        "price": 143.0,
        "sales": 62,
        "divisions": "内蒙古/兴安盟/扎赉特旗",
        "coordinate": {
            "lat": 46.790100840719,
            "lng": 122.90149934969
        },
        "introduction": "瀑布是河流在平坦玄武岩台地的断陷地带跌入陷谷形成。距瀑布100米范围内即可听到瀑布跌水声，但不见瀑布形影，直至瀑布边缘，",
        "free": false,
        "address": "扎赉特旗北部"
    },
    {
        "id": 182,
        "city": "内蒙古",
        "name": "海拉尔国家森林公园",
        "level": "3A",
        "score": 3.6,
        "price": 3.0,
        "sales": 54,
        "divisions": "内蒙古/呼伦贝尔/海拉尔区",
        "coordinate": {
            "lat": 49.202231,
            "lng": 119.721431
        },
        "introduction": "中国北方珍贵的针叶树种之一",
        "free": false,
        "address": "内蒙古呼伦贝尔盟海拉尔市区西部"
    },
    {
        "id": 183,
        "city": "内蒙古",
        "name": "呼和诺尔草原",
        "level": "4A",
        "score": 3.6,
        "price": 180.0,
        "sales": 68,
        "divisions": "内蒙古/呼伦贝尔/陈巴尔虎旗",
        "coordinate": {
            "lat": 49.306136,
            "lng": 119.246306
        },
        "introduction": "具有独特的草原风光和浓郁的少数民族风情",
        "free": false,
        "address": "内蒙古呼伦巴尔市陈巴尔虎旗"
    },
    {
        "id": 184,
        "city": "内蒙古",
        "name": "满洲里国门景区",
        "level": "5A",
        "score": 3.7,
        "price": 10.0,
        "sales": 39,
        "divisions": "内蒙古/呼伦贝尔/中俄边境旅游区",
        "coordinate": {
            "lat": 49.63359,
            "lng": 117.362682
        },
        "introduction": "中俄边境旅游区的重要组成部分",
        "free": false,
        "address": "内蒙古呼伦贝尔满洲里市西部中俄边境处"
    },
    {
        "id": 185,
        "city": "内蒙古",
        "name": "永亮温泉水世界",
        "level": "nan",
        "score": 0.0,
        "price": 93.0,
        "sales": 90,
        "divisions": "内蒙古/乌兰察布/集宁区",
        "coordinate": {
            "lat": 41.000606,
            "lng": 113.156154
        },
        "introduction": "温泉养生、休闲娱乐、汗蒸理疗、绿色美食",
        "free": false,
        "address": "内蒙古自治区乌兰察布市集宁新区正黄路东侧，昌宁街北侧（温州建材城东门对面）"
    },
    {
        "id": 186,
        "city": "内蒙古",
        "name": "公主湖",
        "level": "nan",
        "score": 0.0,
        "price": 468.0,
        "sales": 82,
        "divisions": "内蒙古/赤峰/乌兰布统旅游区",
        "coordinate": {
            "lat": 42.662754,
            "lng": 117.136937
        },
        "introduction": "风情万种，令人陶醉",
        "free": false,
        "address": "内蒙古赤峰市克什克腾旗乌兰布统旅游景区内"
    },
    {
        "id": 187,
        "city": "内蒙古",
        "name": "老鹰嘴",
        "level": "nan",
        "score": 0.0,
        "price": 500.0,
        "sales": 39,
        "divisions": "内蒙古/呼伦贝尔/额尔古纳市",
        "coordinate": {
            "lat": 51.421216,
            "lng": 119.996476
        },
        "introduction": "当地人踏青赏秋的独特景点",
        "free": false,
        "address": "内蒙古省额尔古纳市室韦镇临江屯以北7公里"
    },
    {
        "id": 188,
        "city": "内蒙古",
        "name": "哈素海天鹅堡温泉",
        "level": "nan",
        "score": 0.0,
        "price": 95.0,
        "sales": 84,
        "divisions": "内蒙古/呼和浩特/哈素海",
        "coordinate": {
            "lat": 40.628271,
            "lng": 110.996331
        },
        "introduction": "温泉出水口温度为52度，温泉检测水质优良",
        "free": false,
        "address": "内蒙古呼和浩特市土默特左旗哈素海国家湿地公园"
    },
    {
        "id": 189,
        "city": "内蒙古",
        "name": "鄂尔多斯康巴什旅游区",
        "level": "4A",
        "score": 0.0,
        "price": 1195.0,
        "sales": 93,
        "divisions": "内蒙古/鄂尔多斯/康巴什",
        "coordinate": {
            "lat": 39.608494,
            "lng": 109.819623
        },
        "introduction": "民族性与现代性交相辉印的城市经典之作",
        "free": false,
        "address": "内蒙古自治区鄂尔多斯市康巴什新区"
    },
    {
        "id": 190,
        "city": "内蒙古",
        "name": "达尔吉林寺",
        "level": "nan",
        "score": 0.0,
        "price": 3.0,
        "sales": 82,
        "divisions": "内蒙古/呼伦贝尔/海拉尔区",
        "coordinate": {
            "lat": 49.239804,
            "lng": 119.761735
        },
        "introduction": "一座藏传佛教寺院",
        "free": false,
        "address": "中国内蒙古自治区呼伦贝尔市海拉尔区"
    },
    {
        "id": 191,
        "city": "内蒙古",
        "name": "乌兰布统草原",
        "level": "nan",
        "score": 0.0,
        "price": 468.0,
        "sales": 55,
        "divisions": "内蒙古/赤峰/乌兰布统旅游区",
        "coordinate": {
            "lat": 42.538855,
            "lng": 117.241154
        },
        "introduction": "它是天公的赐予是造化的神奇",
        "free": false,
        "address": "乌兰布统旅游开发区地处克什克腾旗西南部（克什克腾旗乌兰布统乡），浑善达克沙地的东南边缘，平均海拔高度1500米，距旗人民政府所在地115公里"
    },
    {
        "id": 192,
        "city": "内蒙古",
        "name": "龙岩览胜",
        "level": "nan",
        "score": 0.0,
        "price": 3680.0,
        "sales": 67,
        "divisions": "内蒙古/呼伦贝尔/额尔古纳市",
        "coordinate": {
            "lat": 51.269319,
            "lng": 120.798277
        },
        "introduction": "龙头高耸，龙身苍劲，龙尾挺峭",
        "free": false,
        "address": "内蒙古呼伦贝尔市额尔古纳市"
    },
    {
        "id": 193,
        "city": "内蒙古",
        "name": "贡格尔草原",
        "level": "nan",
        "score": 0.0,
        "price": 3980.0,
        "sales": 70,
        "divisions": "内蒙古/赤峰/克什克腾旗",
        "coordinate": {
            "lat": 43.408748,
            "lng": 116.680613
        },
        "introduction": "融自然风光、蒙古族风情于一体，景色如画",
        "free": false,
        "address": "内蒙古赤峰市克什克腾旗达来诺日乡"
    },
    {
        "id": 194,
        "city": "内蒙古",
        "name": "驼峰岭天池",
        "level": "nan",
        "score": 0.0,
        "price": 1580.0,
        "sales": 62,
        "divisions": "内蒙古/兴安盟/阿尔山国家森林公园",
        "coordinate": {
            "lat": 47.465159,
            "lng": 120.654133
        },
        "introduction": "蕴含美丽传说的驼峰岭天池",
        "free": false,
        "address": "阿尔山国家森林公园内，离游客中心40km，自驾20分钟"
    },
    {
        "id": 195,
        "city": "内蒙古",
        "name": "乌苏浪子湖",
        "level": "nan",
        "score": 0.0,
        "price": 1580.0,
        "sales": 91,
        "divisions": "内蒙古/兴安盟/阿尔山市",
        "coordinate": {
            "lat": 47.322076,
            "lng": 120.343765
        },
        "introduction": "水美草香，有“大兴安岭小江南”之美誉",
        "free": false,
        "address": "nan"
    },
    {
        "id": 196,
        "city": "内蒙古",
        "name": "赤峰悦温泉",
        "level": "nan",
        "score": 0.0,
        "price": 22.0,
        "sales": 69,
        "divisions": "内蒙古/赤峰/松山区",
        "coordinate": {
            "lat": 42.295923,
            "lng": 118.935126
        },
        "introduction": "天赋灵泉、悦·享自然，悦温泉休闲养生汗蒸会馆位于赤峰市松山区富河国际a区西门，总面积为3000余平米，是一家高品质沐浴养",
        "free": false,
        "address": "内蒙古自治区赤峰市松山区富和国际A区15号楼01-11"
    },
    {
        "id": 197,
        "city": "内蒙古",
        "name": "嘚趣相声社",
        "level": "nan",
        "score": 0.0,
        "price": 22.0,
        "sales": 87,
        "divisions": "内蒙古/呼和浩特/新城区",
        "coordinate": {
            "lat": 40.845491,
            "lng": 111.667908
        },
        "introduction": "呼和浩特市嘚趣相声社（原众乐相声社）成立与二零一六年，是由呼和浩特几位热爱曲艺的青年小伙子共同成立，常规演出为每周五、六",
        "free": false,
        "address": "呼和浩特市新城区气象局西巷北口巴音琴行二楼"
    },
    {
        "id": 198,
        "city": "内蒙古",
        "name": "准格尔旗黄河大峡谷",
        "level": "nan",
        "score": 0.0,
        "price": 27.0,
        "sales": 36,
        "divisions": "内蒙古/鄂尔多斯/准格尔旗",
        "coordinate": {
            "lat": 39.619085,
            "lng": 111.466257
        },
        "introduction": "准格尔黄河大峡谷位于鄂尔多斯市准格尔旗，景区以广袤的黄河峡谷风景为底色，以浑厚的黄河文化为依托，以漫瀚文化为品牌，打造黄",
        "free": false,
        "address": "鄂尔多斯市准格尔旗包子塔"
    },
    {
        "id": 199,
        "city": "内蒙古",
        "name": "绿康源生态游乐园",
        "level": "nan",
        "score": 0.0,
        "price": 19.0,
        "sales": 90,
        "divisions": "内蒙古/乌兰察布/丰镇市",
        "coordinate": {
            "lat": 40.502067,
            "lng": 113.09111
        },
        "introduction": "绿康源生态游乐园位于乌兰察布市丰镇市，主要设有有机果蔬采摘、农耕农活体验、户外拓展训练、手工陶艺制作、小动物喂养以及儿童",
        "free": false,
        "address": "乌兰察布市丰镇市巨宝庄镇绿康源采摘"
    },
    {
        "id": 200,
        "city": "内蒙古",
        "name": "莫力庙世源温泉度假疗养康复中心",
        "level": "nan",
        "score": 0.0,
        "price": 88.0,
        "sales": 82,
        "divisions": "内蒙古/通辽",
        "coordinate": {
            "lat": 43.580626,
            "lng": 121.949734
        },
        "introduction": "nan",
        "free": false,
        "address": "通辽市科尔沁区莫力庙苏木东3公里"
    },
    {
        "id": 201,
        "city": "内蒙古",
        "name": "敖汉温泉城",
        "level": "nan",
        "score": 3.5,
        "price": 55.0,
        "sales": 74,
        "divisions": "内蒙古/赤峰/敖汉旗",
        "coordinate": {
            "lat": 41.940886,
            "lng": 119.996795
        },
        "introduction": "饮浴并用更有特效，是温泉养生的好去处",
        "free": false,
        "address": "内蒙古赤峰市敖汉旗林家地乡热水汤村"
    },
    {
        "id": 202,
        "city": "内蒙古",
        "name": "乌兰布统旅游区",
        "level": "nan",
        "score": 5.0,
        "price": 538.0,
        "sales": 68,
        "divisions": "内蒙古/赤峰/克什克腾旗",
        "coordinate": {
            "lat": 42.490725,
            "lng": 117.284212
        },
        "introduction": "《射雕英雄传》和《康熙帝国》的拍摄场景",
        "free": false,
        "address": "内蒙古自治区赤峰市克什克腾旗"
    },
    {
        "id": 203,
        "city": "内蒙古",
        "name": "阿尔山天池",
        "level": "nan",
        "score": 4.1,
        "price": 1580.0,
        "sales": 76,
        "divisions": "内蒙古/兴安盟/阿尔山国家森林公园",
        "coordinate": {
            "lat": 47.318643,
            "lng": 120.425001
        },
        "introduction": "像一块碧玉，镶嵌在林木苍翠的高山之巅",
        "free": false,
        "address": "阿尔山市东北74公里"
    },
    {
        "id": 204,
        "city": "内蒙古",
        "name": "七仙湖草原",
        "level": "nan",
        "score": 3.6,
        "price": 1580.0,
        "sales": 63,
        "divisions": "内蒙古/兴安盟/阿尔山市",
        "coordinate": {
            "lat": 49.144172588313,
            "lng": 119.75403737824
        },
        "introduction": "茫茫辽阔大草原，浓浓蒙古牧民风",
        "free": false,
        "address": "内蒙古兴安盟阿尔山市"
    },
    {
        "id": 205,
        "city": "内蒙古",
        "name": "额尔古纳界河",
        "level": "nan",
        "score": 4.0,
        "price": 268.0,
        "sales": 54,
        "divisions": "内蒙古/呼伦贝尔/额尔古纳市",
        "coordinate": {
            "lat": 50.247659,
            "lng": 119.341837
        },
        "introduction": "一水分两国、一目览两岸之景令人过目难忘",
        "free": false,
        "address": "内蒙古自治区呼伦贝尔额尔古纳市"
    },
    {
        "id": 206,
        "city": "内蒙古",
        "name": "莫尔格勒河",
        "level": "nan",
        "score": 3.7,
        "price": 158.0,
        "sales": 55,
        "divisions": "内蒙古/呼伦贝尔/陈巴尔虎旗",
        "coordinate": {
            "lat": 49.218161074542,
            "lng": 119.76243120667
        },
        "introduction": "两岸草浪滚滚，鲜花盛开",
        "free": false,
        "address": "呼伦贝尔的陈巴尔虎草原深处"
    },
    {
        "id": 207,
        "city": "内蒙古",
        "name": "黑山头城址",
        "level": "nan",
        "score": 3.5,
        "price": 450.0,
        "sales": 80,
        "divisions": "内蒙古/呼伦贝尔/额尔古纳市",
        "coordinate": {
            "lat": 50.144267504259,
            "lng": 119.77631070402
        },
        "introduction": "哈萨尔及其家族居住的主要居住城池之一",
        "free": false,
        "address": "内蒙古自治区呼伦贝尔盟额尔古纳市黑山头镇正北5公里"
    },
    {
        "id": 208,
        "city": "内蒙古",
        "name": "阿拉善通湖草原",
        "level": "4A",
        "score": 0.0,
        "price": 99.0,
        "sales": 46,
        "divisions": "内蒙古/阿拉善盟/阿拉善左旗",
        "coordinate": {
            "lat": 37.603207,
            "lng": 104.938954
        },
        "introduction": "大漠中的伊甸园，魅力多姿，美奂美伦",
        "free": false,
        "address": "内蒙古阿拉善盟阿拉善左旗腾格里沙漠经济开发区"
    },
    {
        "id": 209,
        "city": "内蒙古",
        "name": "塔敏查干沙漠",
        "level": "nan",
        "score": 0.0,
        "price": 120.0,
        "sales": 75,
        "divisions": "内蒙古/通辽/库伦旗",
        "coordinate": {
            "lat": 42.866862,
            "lng": 122.00666
        },
        "introduction": "号称“八百里瀚海”",
        "free": false,
        "address": "内蒙古通辽市库伦旗塔敏查干沙漠旅游区"
    },
    {
        "id": 210,
        "city": "内蒙古",
        "name": "宝古图沙漠旅游区",
        "level": "nan",
        "score": 0.0,
        "price": 3.0,
        "sales": 61,
        "divisions": "内蒙古/通辽/奈曼旗",
        "coordinate": {
            "lat": 43.172743,
            "lng": 120.632944
        },
        "introduction": "浩瀚无垠的大漠风光  长河落日，大漠驼铃",
        "free": false,
        "address": "通辽市奈曼旗白音他拉苏木宝古图沙漠"
    },
    {
        "id": 211,
        "city": "内蒙古",
        "name": "临江屯",
        "level": "nan",
        "score": 0.0,
        "price": 500.0,
        "sales": 31,
        "divisions": "内蒙古/呼伦贝尔/额尔古纳市",
        "coordinate": {
            "lat": 51.419062,
            "lng": 119.990304
        },
        "introduction": "古朴美丽、安静祥和",
        "free": false,
        "address": "内蒙古自治区呼伦贝尔市额尔古纳市"
    },
    {
        "id": 212,
        "city": "北京",
        "name": "故宫",
        "level": "5A",
        "score": 5.0,
        "price": 58.6,
        "sales": 15277,
        "divisions": "北京/北京/东城区",
        "coordinate": {
            "lat": 39.922148,
            "lng": 116.403347
        },
        "introduction": "世界五大宫之首，穿越与您近在咫尺",
        "free": false,
        "address": "北京市东城区景山前街4号"
    },
    {
        "id": 213,
        "city": "北京",
        "name": "颐和园",
        "level": "5A",
        "score": 4.1,
        "price": 30.7,
        "sales": 9633,
        "divisions": "北京/北京/海淀区",
        "coordinate": {
            "lat": 39.999497,
            "lng": 116.276887
        },
        "introduction": "北方也有江南园林",
        "free": false,
        "address": "北京市海淀区新建宫门路19号"
    },
    {
        "id": 214,
        "city": "北京",
        "name": "八达岭长城",
        "level": "5A",
        "score": 4.1,
        "price": 40.0,
        "sales": 9618,
        "divisions": "北京/北京/延庆县",
        "coordinate": {
            "lat": 40.369733,
            "lng": 116.03293
        },
        "introduction": "一定要看那块“不到长城非好汉”碑",
        "free": false,
        "address": "北京市延庆县军都山关沟古道北口216省道附近"
    },
    {
        "id": 215,
        "city": "北京",
        "name": "北京野生动物园",
        "level": "4A",
        "score": 3.5,
        "price": 142.9,
        "sales": 5498,
        "divisions": "北京/北京/大兴区",
        "coordinate": {
            "lat": 39.50183,
            "lng": 116.342645
        },
        "introduction": "北京郊区的一座大型自然生态动物园",
        "free": false,
        "address": "北京市大兴区一零六国道"
    },
    {
        "id": 216,
        "city": "北京",
        "name": "天坛公园",
        "level": "5A",
        "score": 4.0,
        "price": 16.2,
        "sales": 5300,
        "divisions": "北京/北京/东城区",
        "coordinate": {
            "lat": 39.887976,
            "lng": 116.417313
        },
        "introduction": "探寻古代皇帝祭天仪式的奥秘",
        "free": false,
        "address": "北京市东城区天坛内东里7号"
    },
    {
        "id": 217,
        "city": "北京",
        "name": "恭王府",
        "level": "5A",
        "score": 3.7,
        "price": 42.9,
        "sales": 5260,
        "divisions": "北京/北京/西城区",
        "coordinate": {
            "lat": 39.942341,
            "lng": 116.393097
        },
        "introduction": "一起去看看和珅家",
        "free": false,
        "address": "北京市西城区什刹海前海西街17号"
    },
    {
        "id": 218,
        "city": "北京",
        "name": "北京动物园",
        "level": "4A",
        "score": 3.6,
        "price": 18.7,
        "sales": 3957,
        "divisions": "北京/北京/西城区",
        "coordinate": {
            "lat": 39.947983,
            "lng": 116.34331
        },
        "introduction": "百余种动物，让你离自然更近",
        "free": false,
        "address": "北京市西城区西直门外大街137号"
    },
    {
        "id": 219,
        "city": "北京",
        "name": "圆明园",
        "level": "5A",
        "score": 3.8,
        "price": 10.0,
        "sales": 3829,
        "divisions": "北京/北京/海淀区",
        "coordinate": {
            "lat": 40.01629,
            "lng": 116.314607
        },
        "introduction": "追忆昔日万园之园",
        "free": false,
        "address": "北京市海淀区清华西路28号"
    },
    {
        "id": 220,
        "city": "北京",
        "name": "鸟巢",
        "level": "5A",
        "score": 4.2,
        "price": 38.0,
        "sales": 2982,
        "divisions": "北京/北京/奥林匹克公园",
        "coordinate": {
            "lat": 40.000484,
            "lng": 116.404487
        },
        "introduction": "北京的地标，中华民族崛起的象征",
        "free": false,
        "address": "北京市朝阳区国家体育场南路1号奥林匹克公园内"
    },
    {
        "id": 221,
        "city": "北京",
        "name": "中国国家博物馆",
        "level": "nan",
        "score": 3.5,
        "price": 4.7,
        "sales": 2505,
        "divisions": "北京/北京/东城区",
        "coordinate": {
            "lat": 39.90536,
            "lng": 116.40066
        },
        "introduction": "历史与艺术并重，凝聚中国历史文化之精华",
        "free": false,
        "address": "北京东城区东长安街16号天安门广场东侧"
    },
    {
        "id": 222,
        "city": "北京",
        "name": "北海公园",
        "level": "4A",
        "score": 3.8,
        "price": 11.9,
        "sales": 1980,
        "divisions": "北京/北京/西城区",
        "coordinate": {
            "lat": 39.939528,
            "lng": 116.398222
        },
        "introduction": "让我们荡起双桨，小船儿推开波浪",
        "free": false,
        "address": "北京市西城区文津街1号（故宫北）"
    },
    {
        "id": 223,
        "city": "北京",
        "name": "玉渊潭公园",
        "level": "4A",
        "score": 3.6,
        "price": 12.0,
        "sales": 1960,
        "divisions": "北京/北京/海淀区",
        "coordinate": {
            "lat": 39.922645,
            "lng": 116.32638
        },
        "introduction": "花期未到，美照先行",
        "free": false,
        "address": "北京市海淀区西三环中路10号"
    },
    {
        "id": 224,
        "city": "北京",
        "name": "天安门广场",
        "level": "nan",
        "score": 5.0,
        "price": 58.6,
        "sales": 1728,
        "divisions": "北京/北京/东城区",
        "coordinate": {
            "lat": 39.912729,
            "lng": 116.404015
        },
        "introduction": "我爱北京天安门，天安门上太阳升",
        "free": false,
        "address": "北京市东城区天安门"
    },
    {
        "id": 225,
        "city": "北京",
        "name": "北京海洋馆",
        "level": "4A",
        "score": 3.5,
        "price": 175.0,
        "sales": 1686,
        "divisions": "北京/北京/西城区",
        "coordinate": {
            "lat": 39.95032,
            "lng": 116.347505
        },
        "introduction": "奇幻海洋之旅，在帝都感受大海的魅力",
        "free": false,
        "address": "北京市海淀区高粱桥斜街乙18号"
    },
    {
        "id": 226,
        "city": "北京",
        "name": "慕田峪长城",
        "level": "5A",
        "score": 3.5,
        "price": 40.0,
        "sales": 1460,
        "divisions": "北京/北京/怀柔区",
        "coordinate": {
            "lat": 40.437612,
            "lng": 116.57035
        },
        "introduction": "烽火戏诸侯的小众长城",
        "free": false,
        "address": "北京市怀柔区慕田峪村"
    },
    {
        "id": 227,
        "city": "北京",
        "name": "北京欢乐谷",
        "level": "4A",
        "score": 3.6,
        "price": 299.0,
        "sales": 1270,
        "divisions": "北京/北京/朝阳区",
        "coordinate": {
            "lat": 39.873539,
            "lng": 116.500803
        },
        "introduction": "七大主题园区带你畅享北京欢乐谷",
        "free": false,
        "address": "北京市朝阳区东四环小武基北路"
    },
    {
        "id": 228,
        "city": "北京",
        "name": "毛主席纪念堂",
        "level": "nan",
        "score": 3.8,
        "price": 15.0,
        "sales": 1090,
        "divisions": "北京/北京/东城区",
        "coordinate": {
            "lat": 39.909201,
            "lng": 116.404158
        },
        "introduction": "一代伟人的传世一生",
        "free": false,
        "address": "北京市东城区天安门广场人民英雄纪念碑南面"
    },
    {
        "id": 229,
        "city": "北京",
        "name": "中国科学技术馆",
        "level": "4A",
        "score": 0.0,
        "price": 30.0,
        "sales": 980,
        "divisions": "北京/北京/朝阳区",
        "coordinate": {
            "lat": 40.012256,
            "lng": 116.405132
        },
        "introduction": "通过亲身参与，加深对科学的理解和感悟",
        "free": false,
        "address": "北京市朝阳区北辰东路5号"
    },
    {
        "id": 230,
        "city": "北京",
        "name": "古北水镇",
        "level": "nan",
        "score": 0.0,
        "price": 8.0,
        "sales": 978,
        "divisions": "北京/北京/密云县",
        "coordinate": {
            "lat": 40.650895,
            "lng": 117.267356
        },
        "introduction": "司马台长城脚下的北方小镇",
        "free": false,
        "address": "北京市密云县古北口镇司马台村古北水镇"
    },
    {
        "id": 231,
        "city": "北京",
        "name": "景山公园",
        "level": "4A",
        "score": 3.7,
        "price": 11.9,
        "sales": 878,
        "divisions": "北京/北京/西城区",
        "coordinate": {
            "lat": 39.932031,
            "lng": 116.40302
        },
        "introduction": "俯看故宫绝佳位置",
        "free": false,
        "address": "北京市西城区景山西街44号"
    },
    {
        "id": 232,
        "city": "北京",
        "name": "明十三陵",
        "level": "5A",
        "score": 3.6,
        "price": 30.0,
        "sales": 852,
        "divisions": "北京/北京/昌平区",
        "coordinate": {
            "lat": 40.300017,
            "lng": 116.234094
        },
        "introduction": "气势磅礴的陵寝建筑群",
        "free": false,
        "address": "北京市昌平区十三陵特区"
    },
    {
        "id": 233,
        "city": "北京",
        "name": "清华大学",
        "level": "nan",
        "score": 3.8,
        "price": 0.7,
        "sales": 774,
        "divisions": "北京/北京/海淀区",
        "coordinate": {
            "lat": 39.996652,
            "lng": 116.332498
        },
        "introduction": "绿草青青，树木成荫，湖光山色，景色优雅",
        "free": false,
        "address": "北京市海淀区双清路30号"
    },
    {
        "id": 234,
        "city": "北京",
        "name": "雍和宫",
        "level": "nan",
        "score": 3.8,
        "price": 79.0,
        "sales": 746,
        "divisions": "北京/北京/东城区",
        "coordinate": {
            "lat": 39.954954,
            "lng": 116.423433
        },
        "introduction": "佛光普照，巍峨壮观雍和宫",
        "free": false,
        "address": "北京市雍和宫大街12号"
    },
    {
        "id": 235,
        "city": "北京",
        "name": "八达岭长城缆车",
        "level": "nan",
        "score": 0.0,
        "price": 45.0,
        "sales": 710,
        "divisions": "北京/北京/八达岭长城",
        "coordinate": {
            "lat": 40.367229,
            "lng": 116.020213
        },
        "introduction": "巍峨雄伟尽收眼底",
        "free": false,
        "address": "北京市延庆县军都山关沟古道北口八达岭长城景区内"
    },
    {
        "id": 236,
        "city": "北京",
        "name": "八达岭野生动物园",
        "level": "3A",
        "score": 3.5,
        "price": 80.0,
        "sales": 656,
        "divisions": "北京/北京/延庆县",
        "coordinate": {
            "lat": 40.359586,
            "lng": 116.001343
        },
        "introduction": "身临“野性天地”，感受“适者生存”",
        "free": false,
        "address": "北京市延庆县八达岭中心停车场对面"
    },
    {
        "id": 237,
        "city": "北京",
        "name": "北京自然博物馆",
        "level": "nan",
        "score": 3.5,
        "price": 2.5,
        "sales": 592,
        "divisions": "北京/北京/东城区",
        "coordinate": {
            "lat": 39.883321,
            "lng": 116.401417
        },
        "introduction": "打开通往自然的大门，去探索大自然的奥秘",
        "free": false,
        "address": "北京市东城区（原崇文区）天桥南大街126号"
    },
    {
        "id": 238,
        "city": "北京",
        "name": "中国人民革命军事博物馆",
        "level": "nan",
        "score": 3.5,
        "price": 7.8,
        "sales": 582,
        "divisions": "北京/北京/海淀区",
        "coordinate": {
            "lat": 39.915462,
            "lng": 116.330745
        },
        "introduction": "1958年9月21日正式组建。展览大楼于1958年10月动工兴建，1959年7月竣工，同年10月内部预展，1960年8月",
        "free": false,
        "address": "北京市海淀区复兴路9号"
    },
    {
        "id": 239,
        "city": "北京",
        "name": "水立方",
        "level": "nan",
        "score": 0.0,
        "price": 29.0,
        "sales": 580,
        "divisions": "北京/北京/奥林匹克公园",
        "coordinate": {
            "lat": 39.999061,
            "lng": 116.396015
        },
        "introduction": "中国的荣耀，阳光下的晶莹水滴",
        "free": false,
        "address": "北京市朝阳区天辰东路11号奥林匹克公园内"
    },
    {
        "id": 240,
        "city": "北京",
        "name": "北京植物园",
        "level": "4A",
        "score": 3.5,
        "price": 12.25,
        "sales": 546,
        "divisions": "北京/北京/海淀区",
        "coordinate": {
            "lat": 40.008988,
            "lng": 116.216945
        },
        "introduction": "集科学研究、科学普及和游览功能为一体",
        "free": false,
        "address": "北京市海淀区卧佛寺路"
    },
    {
        "id": 241,
        "city": "北京",
        "name": "北京国际鲜花港",
        "level": "4A",
        "score": 0.0,
        "price": 50.0,
        "sales": 530,
        "divisions": "北京/北京/顺义区",
        "coordinate": {
            "lat": 40.182654,
            "lng": 116.806452
        },
        "introduction": "感受花卉文化，徜徉花的海洋",
        "free": false,
        "address": "北京市顺义区杨镇鲜花港南路9号"
    },
    {
        "id": 242,
        "city": "北京",
        "name": "司马台长城",
        "level": "4A",
        "score": 3.8,
        "price": 40.0,
        "sales": 486,
        "divisions": "北京/北京/密云县",
        "coordinate": {
            "lat": 40.660322,
            "lng": 117.284641
        },
        "introduction": "城墙依险峻山势而筑，以奇、特、险著称于世",
        "free": false,
        "address": "北京市密云县东北部的古北口镇境内"
    },